[
    {
        "id": "000000145",
        "city": "Leipzig",
        "name": "Arcus Park",
        "latitude": 51.361549,
        "longitude": 12.446576
    },
    {
        "id": "000000152",
        "city": "Leipzig",
        "name": "Bergstr.",
        "latitude": 51.340535,
        "longitude": 12.402015
    },
    {
        "id": "000000154",
        "city": "Leipzig",
        "name": "Breitscheidhof",
        "latitude": 51.351846,
        "longitude": 12.286913
    },
    {
        "id": "000000163",
        "city": "Leipzig",
        "name": "Bremer Str.",
        "latitude": 51.376178,
        "longitude": 12.365034
    },
    {
        "id": "000000164",
        "city": "Leipzig",
        "name": "Dankwartstr.",
        "latitude": 51.299188,
        "longitude": 12.392814
    },
    {
        "id": "000000165",
        "city": "Leipzig",
        "name": "S-Bahnhof MDR (Bus)",
        "latitude": 51.320852,
        "longitude": 12.385905
    },
    {
        "id": "000000170",
        "city": "Leipzig",
        "name": "Erich-Zeigner-Allee",
        "latitude": 51.327134,
        "longitude": 12.337815
    },
    {
        "id": "000000192",
        "city": "Leipzig",
        "name": "Goetheplatz",
        "latitude": 51.355432,
        "longitude": 12.286969
    },
    {
        "id": "000000223",
        "city": "Leipzig",
        "name": "Gröpplerstr.",
        "latitude": 51.334239,
        "longitude": 12.314676
    },
    {
        "id": "000000243",
        "city": "Leipzig",
        "name": "Lindenau, Nathanaelkirche",
        "latitude": 51.339061,
        "longitude": 12.332653
    },
    {
        "id": "000000486",
        "city": "Leipzig",
        "name": "Lise-Meitner-Str.",
        "latitude": 51.355178,
        "longitude": 12.305548
    },
    {
        "id": "000000613",
        "city": "Leipzig",
        "name": "Louis-Fürnberg-Str.",
        "latitude": 51.348684,
        "longitude": 12.430274
    },
    {
        "id": "000000688",
        "city": "Leipzig",
        "name": "Morgensternstr.",
        "latitude": 51.335053,
        "longitude": 12.311965
    },
    {
        "id": "000000693",
        "city": "Leipzig",
        "name": "Reinhardtstr.",
        "latitude": 51.346746,
        "longitude": 12.430115
    },
    {
        "id": "000000694",
        "city": "Leipzig",
        "name": "Rosmarinweg",
        "latitude": 51.346076,
        "longitude": 12.428112
    },
    {
        "id": "000000695",
        "city": "Leipzig",
        "name": "Schleußig, Karlbrücke",
        "latitude": 51.326086,
        "longitude": 12.340523
    },
    {
        "id": "000000696",
        "city": "Leipzig",
        "name": "Schwantesstr.",
        "latitude": 51.353765,
        "longitude": 12.430238
    },
    {
        "id": "000000697",
        "city": "Leipzig",
        "name": "Stünz",
        "latitude": 51.339647,
        "longitude": 12.433015
    },
    {
        "id": "000000698",
        "city": "Leipzig",
        "name": "Taubestr.",
        "latitude": 51.357421,
        "longitude": 12.411295
    },
    {
        "id": "000000701",
        "city": "Leipzig",
        "name": "Rückmarsdorf, Tucholskystr.",
        "latitude": 51.344313,
        "longitude": 12.274328
    },
    {
        "id": "000000702",
        "city": "Leipzig",
        "name": "Wilhelm-Winkler-Str.",
        "latitude": 51.354182,
        "longitude": 12.28922
    },
    {
        "id": "000000703",
        "city": "Leipzig",
        "name": "Zittauer Str.",
        "latitude": 51.3561,
        "longitude": 12.409114
    },
    {
        "id": "000000704",
        "city": "Leipzig",
        "name": "Zweenfurther Str.",
        "latitude": 51.340216,
        "longitude": 12.431393
    },
    {
        "id": "000000705",
        "city": "Leipzig",
        "name": "Cunnersdorfer Str.",
        "latitude": 51.34209,
        "longitude": 12.429752
    },
    {
        "id": "000000712",
        "city": "Leipzig",
        "name": "Portitz, Schule",
        "latitude": 51.386147,
        "longitude": 12.455525
    },
    {
        "id": "000000823",
        "city": "Leipzig",
        "name": "Porsche/Tor 2",
        "latitude": 51.399007,
        "longitude": 12.295227
    },
    {
        "id": "000000851",
        "city": "Leipzig",
        "name": "Porsche/Tor 3",
        "latitude": 51.40104,
        "longitude": 12.284319
    },
    {
        "id": "000000910",
        "city": "Leipzig",
        "name": "Roßplatz/Grünewaldstr.",
        "latitude": 51.333358,
        "longitude": 12.37632
    },
    {
        "id": "000003639",
        "city": "Leipzig",
        "name": "Bästlein-/Schwantesstr.",
        "latitude": 51.356536,
        "longitude": 12.430804
    },
    {
        "id": "000003744",
        "city": "Leipzig",
        "name": "Porsche/Tor 1",
        "latitude": 51.410368,
        "longitude": 12.295383
    },
    {
        "id": "000003780",
        "city": "Leipzig",
        "name": "Am Viadukt",
        "latitude": 51.373327,
        "longitude": 12.3273
    },
    {
        "id": "000003862",
        "city": "Leipzig",
        "name": "Bei der Krähenhütte",
        "latitude": 51.287308,
        "longitude": 12.398448
    },
    {
        "id": "000003863",
        "city": "Leipzig",
        "name": "Johannishöhe",
        "latitude": 51.286673,
        "longitude": 12.407291
    },
    {
        "id": "000003865",
        "city": "Leipzig",
        "name": "Matzelstr.",
        "latitude": 51.289398,
        "longitude": 12.390242
    },
    {
        "id": "000003866",
        "city": "Leipzig",
        "name": "Springerstr.",
        "latitude": 51.355066,
        "longitude": 12.370306
    },
    {
        "id": "000003867",
        "city": "Leipzig",
        "name": "Zum Dölitzer Schacht",
        "latitude": 51.286954,
        "longitude": 12.401963
    },
    {
        "id": "000010688",
        "city": "Leipzig",
        "name": "Rückmarsdorf, Einkaufspassage",
        "latitude": 51.344649,
        "longitude": 12.262938
    },
    {
        "id": "000010750",
        "city": "Leipzig",
        "name": "Lipsiusstr.",
        "latitude": 51.330789,
        "longitude": 12.413995
    },
    {
        "id": "000010752",
        "city": "Leipzig",
        "name": "Möckern, Slevogtstr.",
        "latitude": 51.371091,
        "longitude": 12.340483
    },
    {
        "id": "000010756",
        "city": "Leipzig",
        "name": "Holsteinstr.",
        "latitude": 51.33109,
        "longitude": 12.411391
    },
    {
        "id": "000010758",
        "city": "Leipzig",
        "name": "Liebigstr.",
        "latitude": 51.330492,
        "longitude": 12.392386
    },
    {
        "id": "000010759",
        "city": "Leipzig",
        "name": "Schulze-Boysen-Str.",
        "latitude": 51.332493,
        "longitude": 12.400586
    },
    {
        "id": "000010762",
        "city": "Leipzig",
        "name": "Fockestr.",
        "latitude": 51.320893,
        "longitude": 12.365789
    },
    {
        "id": "000010764",
        "city": "Leipzig",
        "name": "Erika-von-Brockdorff-Str.",
        "latitude": 51.369797,
        "longitude": 12.345488
    },
    {
        "id": "000010767",
        "city": "Leipzig",
        "name": "Michael-Kazmierczak-Str.",
        "latitude": 51.367292,
        "longitude": 12.372584
    },
    {
        "id": "000010786",
        "city": "Leipzig",
        "name": "Hartmannsdorf, Erikenstr.",
        "latitude": 51.261695,
        "longitude": 12.306396
    },
    {
        "id": "000010787",
        "city": "Leipzig",
        "name": "Karl-Heine-/Gießerstr.",
        "latitude": 51.32979,
        "longitude": 12.327287
    },
    {
        "id": "000010788",
        "city": "Leipzig",
        "name": "Diezmannstr.",
        "latitude": 51.320097,
        "longitude": 12.317788
    },
    {
        "id": "000010789",
        "city": "Leipzig",
        "name": "Adler",
        "latitude": 51.320293,
        "longitude": 12.330186
    },
    {
        "id": "000010790",
        "city": "Leipzig",
        "name": "Holbeinstr.",
        "latitude": 51.328091,
        "longitude": 12.346195
    },
    {
        "id": "000010791",
        "city": "Leipzig",
        "name": "Stieglitzstr.",
        "latitude": 51.323897,
        "longitude": 12.343794
    },
    {
        "id": "000010792",
        "city": "Leipzig",
        "name": "Knautnaundorf, Werkstr.",
        "latitude": 51.251596,
        "longitude": 12.262586
    },
    {
        "id": "000010793",
        "city": "Leipzig",
        "name": "Marschnerstr.",
        "latitude": 51.336498,
        "longitude": 12.357186
    },
    {
        "id": "000010795",
        "city": "Leipzig",
        "name": "Klingerweg",
        "latitude": 51.332497,
        "longitude": 12.350592
    },
    {
        "id": "000010796",
        "city": "Leipzig",
        "name": "Kurt-Kresse-Str.",
        "latitude": 51.314396,
        "longitude": 12.315884
    },
    {
        "id": "000010797",
        "city": "Leipzig",
        "name": "Herrmann-Meyer-Str.",
        "latitude": 51.315391,
        "longitude": 12.309987
    },
    {
        "id": "000010810",
        "city": "Leipzig",
        "name": "Siemensstr.",
        "latitude": 51.321792,
        "longitude": 12.326191
    },
    {
        "id": "000010811",
        "city": "Leipzig",
        "name": "Hauptbahnhof/Ostseite",
        "latitude": 51.343901,
        "longitude": 12.382078
    },
    {
        "id": "000010813",
        "city": "Leipzig",
        "name": "Rödelstr.",
        "latitude": 51.318493,
        "longitude": 12.34099
    },
    {
        "id": "000010814",
        "city": "Leipzig",
        "name": "S-Bahnhof Plagwitz (Tram/Bus)",
        "latitude": 51.328273,
        "longitude": 12.322756
    },
    {
        "id": "000010815",
        "city": "Leipzig",
        "name": "Zollschuppenst.",
        "latitude": 51.326949,
        "longitude": 12.324426
    },
    {
        "id": "000010817",
        "city": "Leipzig",
        "name": "Naumburger Str.",
        "latitude": 51.32649,
        "longitude": 12.327593
    },
    {
        "id": "000010818",
        "city": "Leipzig",
        "name": "Messegelände",
        "latitude": 51.396712,
        "longitude": 12.39657
    },
    {
        "id": "000010823",
        "city": "Leipzig",
        "name": "Georg-Herwegh-Str.",
        "latitude": 51.394884,
        "longitude": 12.383024
    },
    {
        "id": "000010824",
        "city": "Leipzig",
        "name": "S-Bahnhof Messe (Tram/Bus)",
        "latitude": 51.396038,
        "longitude": 12.388815
    },
    {
        "id": "000010827",
        "city": "Leipzig",
        "name": "Rochlitzstr.",
        "latitude": 51.31879,
        "longitude": 12.347885
    },
    {
        "id": "000010828",
        "city": "Leipzig",
        "name": "Rennbahn",
        "latitude": 51.32119,
        "longitude": 12.361391
    },
    {
        "id": "000010856",
        "city": "Leipzig",
        "name": "Bahnhof Paunsdorf (Bus)",
        "latitude": 51.343492,
        "longitude": 12.44509
    },
    {
        "id": "000010861",
        "city": "Leipzig",
        "name": "Hartmannsdorf, Gasthof",
        "latitude": 51.267391,
        "longitude": 12.309085
    },
    {
        "id": "000010935",
        "city": "Leipzig",
        "name": "Gefrierzentrum",
        "latitude": 51.249993,
        "longitude": 12.274895
    },
    {
        "id": "000010937",
        "city": "Leipzig",
        "name": "Knautnaundorf, Rundkapellenweg",
        "latitude": 51.253898,
        "longitude": 12.27159
    },
    {
        "id": "000010939",
        "city": "Leipzig",
        "name": "Abzweig n. Hartmannsdorf",
        "latitude": 51.263391,
        "longitude": 12.292487
    },
    {
        "id": "000010980",
        "city": "Leipzig",
        "name": "Eutritzscher Zentrum",
        "latitude": 51.365193,
        "longitude": 12.385185
    },
    {
        "id": "000010983",
        "city": "Leipzig",
        "name": "Bayerischer Bahnhof (Tram/Bus)",
        "latitude": 51.33051,
        "longitude": 12.380904
    },
    {
        "id": "000010997",
        "city": "Leipzig",
        "name": "Wildpark",
        "latitude": 51.300591,
        "longitude": 12.372593
    },
    {
        "id": "000011002",
        "city": "Leipzig",
        "name": "Mathildenstr.",
        "latitude": 51.307297,
        "longitude": 12.373587
    },
    {
        "id": "000011003",
        "city": "Leipzig",
        "name": "Koburger Brücke",
        "latitude": 51.303395,
        "longitude": 12.37419
    },
    {
        "id": "000011004",
        "city": "Leipzig",
        "name": "Gottschedstr.",
        "latitude": 51.341297,
        "longitude": 12.367587
    },
    {
        "id": "000011005",
        "city": "Leipzig",
        "name": "Westplatz",
        "latitude": 51.338992,
        "longitude": 12.362393
    },
    {
        "id": "000011059",
        "city": "Leipzig",
        "name": "Edlichstr.",
        "latitude": 51.342743,
        "longitude": 12.414195
    },
    {
        "id": "000011060",
        "city": "Leipzig",
        "name": "Geißlerstr./Bülowviertel",
        "latitude": 51.344845,
        "longitude": 12.41919
    },
    {
        "id": "000011061",
        "city": "Leipzig",
        "name": "Reudnitz, Koehlerstr.",
        "latitude": 51.338894,
        "longitude": 12.403085
    },
    {
        "id": "000011062",
        "city": "Leipzig",
        "name": "Wiebelstr.",
        "latitude": 51.340029,
        "longitude": 12.408279
    },
    {
        "id": "000011063",
        "city": "Leipzig",
        "name": "Johannisplatz",
        "latitude": 51.338169,
        "longitude": 12.385014
    },
    {
        "id": "000011064",
        "city": "Leipzig",
        "name": "Gerichtsweg",
        "latitude": 51.339097,
        "longitude": 12.395189
    },
    {
        "id": "000011069",
        "city": "Leipzig",
        "name": "Annenstr.",
        "latitude": 51.343712,
        "longitude": 12.421661
    },
    {
        "id": "000011070",
        "city": "Leipzig",
        "name": "Sellerhausen, Emmausstr.",
        "latitude": 51.343839,
        "longitude": 12.428074
    },
    {
        "id": "000011071",
        "city": "Leipzig",
        "name": "Sportforum Süd",
        "latitude": 51.340689,
        "longitude": 12.35119
    },
    {
        "id": "000011072",
        "city": "Leipzig",
        "name": "Angerbrücke/Straßenbahnhof",
        "latitude": 51.337392,
        "longitude": 12.340097
    },
    {
        "id": "000011073",
        "city": "Leipzig",
        "name": "Leibnizstr.",
        "latitude": 51.343296,
        "longitude": 12.364991
    },
    {
        "id": "000011074",
        "city": "Leipzig",
        "name": "Waldplatz",
        "latitude": 51.342297,
        "longitude": 12.359089
    },
    {
        "id": "000011076",
        "city": "Leipzig",
        "name": "Felsenkeller",
        "latitude": 51.33249,
        "longitude": 12.338894
    },
    {
        "id": "000011077",
        "city": "Leipzig",
        "name": "Karl-Heine-/Merseburger Str.",
        "latitude": 51.331394,
        "longitude": 12.333489
    },
    {
        "id": "000011078",
        "city": "Leipzig",
        "name": "Elster Passage",
        "latitude": 51.328692,
        "longitude": 12.336493
    },
    {
        "id": "000011079",
        "city": "Leipzig",
        "name": "Markranstädter Str.",
        "latitude": 51.325295,
        "longitude": 12.334194
    },
    {
        "id": "000011102",
        "city": "Leipzig",
        "name": "August-Bebel-/Kurt-Eisner-Str.",
        "latitude": 51.320893,
        "longitude": 12.368889
    },
    {
        "id": "000011115",
        "city": "Leipzig",
        "name": "Leopoldstr.",
        "latitude": 51.30419,
        "longitude": 12.37409
    },
    {
        "id": "000011120",
        "city": "Leipzig",
        "name": "Grünau-Süd",
        "latitude": 51.311498,
        "longitude": 12.278976
    },
    {
        "id": "000011121",
        "city": "Leipzig",
        "name": "Schönauer/Ratzelstr.",
        "latitude": 51.314396,
        "longitude": 12.303186
    },
    {
        "id": "000011122",
        "city": "Leipzig",
        "name": "Nonnenstr.",
        "latitude": 51.332393,
        "longitude": 12.348891
    },
    {
        "id": "000011123",
        "city": "Leipzig",
        "name": "Hohenheida, Gasthof",
        "latitude": 51.419989,
        "longitude": 12.446489
    },
    {
        "id": "000011124",
        "city": "Leipzig",
        "name": "Hohenheida, Am Anger",
        "latitude": 51.420193,
        "longitude": 12.452688
    },
    {
        "id": "000011126",
        "city": "Leipzig",
        "name": "Göbschelwitz",
        "latitude": 51.419597,
        "longitude": 12.422184
    },
    {
        "id": "000011127",
        "city": "Leipzig",
        "name": "Seehausen, Schule",
        "latitude": 51.403689,
        "longitude": 12.413289
    },
    {
        "id": "000011128",
        "city": "Leipzig",
        "name": "Seehausen, Gut Seehausen",
        "latitude": 51.406094,
        "longitude": 12.418687
    },
    {
        "id": "000011129",
        "city": "Leipzig",
        "name": "Anemonenweg",
        "latitude": 51.331693,
        "longitude": 12.438392
    },
    {
        "id": "000011130",
        "city": "Leipzig",
        "name": "Seehausen, Alte Mühle",
        "latitude": 51.410017,
        "longitude": 12.419526
    },
    {
        "id": "000011131",
        "city": "Leipzig Gottscheina",
        "name": "Am Ring",
        "latitude": 51.425092,
        "longitude": 12.479192
    },
    {
        "id": "000011167",
        "city": "Leipzig",
        "name": "Bahnhof Holzhausen (Bus)",
        "latitude": 51.306474,
        "longitude": 12.462068
    },
    {
        "id": "000011176",
        "city": "Leipzig",
        "name": "GVZ Nord/Deutsche Post AG",
        "latitude": 51.413579,
        "longitude": 12.293415
    },
    {
        "id": "000011182",
        "city": "Leipzig",
        "name": "GVZ Nord/Großmarkt Leipzig",
        "latitude": 51.410586,
        "longitude": 12.305809
    },
    {
        "id": "000011198",
        "city": "Leipzig",
        "name": "GVZ Nord/Sattlerweg",
        "latitude": 51.408599,
        "longitude": 12.302301
    },
    {
        "id": "000011199",
        "city": "Leipzig",
        "name": "Krakauer Str.",
        "latitude": 51.309294,
        "longitude": 12.272291
    },
    {
        "id": "000011200",
        "city": "Leipzig",
        "name": "Zschampertaue",
        "latitude": 51.307297,
        "longitude": 12.266195
    },
    {
        "id": "000011201",
        "city": "Leipzig",
        "name": "Ratzelbogen",
        "latitude": 51.311996,
        "longitude": 12.283688
    },
    {
        "id": "000011212",
        "city": "Leipzig",
        "name": "Arno-Nitzsche-Str.",
        "latitude": 51.31058,
        "longitude": 12.374488
    },
    {
        "id": "000011228",
        "city": "Leipzig",
        "name": "GVZ Nord/T&S",
        "latitude": 51.41313,
        "longitude": 12.302642
    },
    {
        "id": "000011274",
        "city": "Leipzig",
        "name": "Heisenbergstr.",
        "latitude": 51.364392,
        "longitude": 12.46509
    },
    {
        "id": "000011276",
        "city": "Leipzig",
        "name": "Heiterblick, Teslastr.",
        "latitude": 51.364195,
        "longitude": 12.451989
    },
    {
        "id": "000011277",
        "city": "Leipzig",
        "name": "Portitzer Allee/S-Bahnhof Heiterblick",
        "latitude": 51.367393,
        "longitude": 12.46059
    },
    {
        "id": "000011278",
        "city": "Leipzig",
        "name": "Bautzner Str.",
        "latitude": 51.355591,
        "longitude": 12.434194
    },
    {
        "id": "000011280",
        "city": "Leipzig",
        "name": "Volksgarten",
        "latitude": 51.348312,
        "longitude": 12.419951
    },
    {
        "id": "000011284",
        "city": "Leipzig",
        "name": "Lausen",
        "latitude": 51.306594,
        "longitude": 12.260795
    },
    {
        "id": "000011287",
        "city": "Leipzig",
        "name": "Am Sonneneck",
        "latitude": 51.301343,
        "longitude": 12.262387
    },
    {
        "id": "000011296",
        "city": "Leipzig",
        "name": "Lausen, Buswendestelle",
        "latitude": 51.307409,
        "longitude": 12.26058
    },
    {
        "id": "000011318",
        "city": "Leipzig",
        "name": "Zschortauer Str.",
        "latitude": 51.37649,
        "longitude": 12.394697
    },
    {
        "id": "000011319",
        "city": "Leipzig",
        "name": "Franz-Mehring-Str.",
        "latitude": 51.376191,
        "longitude": 12.369891
    },
    {
        "id": "000011320",
        "city": "Leipzig",
        "name": "Gohlis-Nord, Virchowstr.",
        "latitude": 51.375791,
        "longitude": 12.379086
    },
    {
        "id": "000011321",
        "city": "Leipzig",
        "name": "Olbrichtstr.",
        "latitude": 51.374895,
        "longitude": 12.356492
    },
    {
        "id": "000011324",
        "city": "Leipzig",
        "name": "Sternsiedlung Nord",
        "latitude": 51.375291,
        "longitude": 12.346091
    },
    {
        "id": "000011325",
        "city": "Leipzig",
        "name": "Rosenowstr.",
        "latitude": 51.376192,
        "longitude": 12.402491
    },
    {
        "id": "000011326",
        "city": "Leipzig",
        "name": "Komarowstr.",
        "latitude": 51.378891,
        "longitude": 12.415393
    },
    {
        "id": "000011327",
        "city": "Leipzig",
        "name": "Riebeck-/Stötteritzer Str.",
        "latitude": 51.327595,
        "longitude": 12.403596
    },
    {
        "id": "000011329",
        "city": "Leipzig",
        "name": "Breite Str.",
        "latitude": 51.335703,
        "longitude": 12.408001
    },
    {
        "id": "000011330",
        "city": "Leipzig",
        "name": "Riebeck-/Oststr.",
        "latitude": 51.331889,
        "longitude": 12.405895
    },
    {
        "id": "000011331",
        "city": "Leipzig",
        "name": "Sommerfeld",
        "latitude": 51.346481,
        "longitude": 12.479
    },
    {
        "id": "000011332",
        "city": "Leipzig",
        "name": "Elsastr.",
        "latitude": 51.342464,
        "longitude": 12.398769
    },
    {
        "id": "000011333",
        "city": "Leipzig",
        "name": "Paunsdorfer Allee/Permoserstr.",
        "latitude": 51.352098,
        "longitude": 12.479095
    },
    {
        "id": "000011334",
        "city": "Leipzig",
        "name": "Paunsdorf Center",
        "latitude": 51.348856,
        "longitude": 12.479237
    },
    {
        "id": "000011335",
        "city": "Leipzig",
        "name": "Technisches Rathaus",
        "latitude": 51.325198,
        "longitude": 12.400964
    },
    {
        "id": "000011336",
        "city": "Leipzig",
        "name": "S-Bahnhof Stötteritz (Tram/Bus)",
        "latitude": 51.324889,
        "longitude": 12.41159
    },
    {
        "id": "000011337",
        "city": "Leipzig",
        "name": "An der Märchenwiese",
        "latitude": 51.306098,
        "longitude": 12.396394
    },
    {
        "id": "000011338",
        "city": "Leipzig",
        "name": "Moritz Hof",
        "latitude": 51.301991,
        "longitude": 12.396292
    },
    {
        "id": "000011339",
        "city": "Leipzig",
        "name": "Meusdorfer Str.",
        "latitude": 51.309491,
        "longitude": 12.38699
    },
    {
        "id": "000011340",
        "city": "Leipzig",
        "name": "Triftweg",
        "latitude": 51.308894,
        "longitude": 12.396386
    },
    {
        "id": "000011341",
        "city": "Leipzig",
        "name": "Wiedebachplatz",
        "latitude": 51.30949,
        "longitude": 12.377665
    },
    {
        "id": "000011342",
        "city": "Leipzig",
        "name": "Körnerstr.",
        "latitude": 51.325092,
        "longitude": 12.378884
    },
    {
        "id": "000011343",
        "city": "Leipzig",
        "name": "Kurt-Eisner-/Arthur-Hoffmann-Str.",
        "latitude": 51.320691,
        "longitude": 12.378388
    },
    {
        "id": "000011344",
        "city": "Leipzig",
        "name": "Lößnig",
        "latitude": 51.296197,
        "longitude": 12.396093
    },
    {
        "id": "000011345",
        "city": "Leipzig",
        "name": "Hohe Str.",
        "latitude": 51.32909,
        "longitude": 12.373408
    },
    {
        "id": "000011346",
        "city": "Leipzig",
        "name": "Siedlerweg",
        "latitude": 51.388696,
        "longitude": 12.360291
    },
    {
        "id": "000011347",
        "city": "Leipzig",
        "name": "Rietzschkegrund",
        "latitude": 51.39009,
        "longitude": 12.367795
    },
    {
        "id": "000011348",
        "city": "Leipzig",
        "name": "Wiederitzscher Landstr.",
        "latitude": 51.396596,
        "longitude": 12.369797
    },
    {
        "id": "000011349",
        "city": "Leipzig",
        "name": "Martinshöhe",
        "latitude": 51.389495,
        "longitude": 12.371286
    },
    {
        "id": "000011350",
        "city": "Leipzig",
        "name": "Baalsdorf, Baalsdorfer Str.",
        "latitude": 51.32339,
        "longitude": 12.480493
    },
    {
        "id": "000011351",
        "city": "Leipzig",
        "name": "Baalsdorf, Kirchweg",
        "latitude": 51.322794,
        "longitude": 12.487796
    },
    {
        "id": "000011352",
        "city": "Leipzig",
        "name": "Lintacherstr.",
        "latitude": 51.324192,
        "longitude": 12.467092
    },
    {
        "id": "000011353",
        "city": "Leipzig",
        "name": "Baalsdorf, Brandiser Str.",
        "latitude": 51.324194,
        "longitude": 12.472187
    },
    {
        "id": "000011354",
        "city": "Leipzig",
        "name": "Wiederitzsch, Schule",
        "latitude": 51.393389,
        "longitude": 12.372795
    },
    {
        "id": "000011355",
        "city": "Leipzig",
        "name": "Wiederitzsch, Bürgerbüro",
        "latitude": 51.394292,
        "longitude": 12.373292
    },
    {
        "id": "000011388",
        "city": "Leipzig",
        "name": "Stahmeln",
        "latitude": 51.378366,
        "longitude": 12.304648
    },
    {
        "id": "000011389",
        "city": "Leipzig",
        "name": "Lützschena",
        "latitude": 51.383393,
        "longitude": 12.281287
    },
    {
        "id": "000011390",
        "city": "Leipzig",
        "name": "Stahmelner Allee",
        "latitude": 51.38077,
        "longitude": 12.293068
    },
    {
        "id": "000011391",
        "city": "Leipzig",
        "name": "Pittlerstr.",
        "latitude": 51.37665,
        "longitude": 12.312886
    },
    {
        "id": "000011392",
        "city": "Leipzig",
        "name": "Annaberger Str.",
        "latitude": 51.371994,
        "longitude": 12.331197
    },
    {
        "id": "000011393",
        "city": "Leipzig",
        "name": "Wahren (Rathaus)",
        "latitude": 51.374395,
        "longitude": 12.324231
    },
    {
        "id": "000011394",
        "city": "Leipzig",
        "name": "Dantestr.",
        "latitude": 51.366842,
        "longitude": 12.346293
    },
    {
        "id": "000011395",
        "city": "Leipzig",
        "name": "Möckernscher Markt",
        "latitude": 51.369893,
        "longitude": 12.337695
    },
    {
        "id": "000011396",
        "city": "Leipzig",
        "name": "Freirodaer Weg",
        "latitude": 51.385738,
        "longitude": 12.273996
    },
    {
        "id": "000011397",
        "city": "Leipzig",
        "name": "Hänichen, Bismarckturm",
        "latitude": 51.38621,
        "longitude": 12.267722
    },
    {
        "id": "000011398",
        "city": "Leipzig",
        "name": "Dreiecksweg",
        "latitude": 51.310396,
        "longitude": 12.310789
    },
    {
        "id": "000011399",
        "city": "Leipzig",
        "name": "Weidenweg",
        "latitude": 51.304392,
        "longitude": 12.314187
    },
    {
        "id": "000011400",
        "city": "Leipzig",
        "name": "Schönauer-Lützner Str.",
        "latitude": 51.323691,
        "longitude": 12.291155
    },
    {
        "id": "000011401",
        "city": "Leipzig",
        "name": "Schönau, Weißdornstr.",
        "latitude": 51.324094,
        "longitude": 12.292791
    },
    {
        "id": "000011402",
        "city": "Leipzig",
        "name": "Lausen, Ärztehaus",
        "latitude": 51.30309,
        "longitude": 12.270687
    },
    {
        "id": "000011403",
        "city": "Leipzig",
        "name": "Rathenaustr.",
        "latitude": 51.354792,
        "longitude": 12.315386
    },
    {
        "id": "000011404",
        "city": "Leipzig",
        "name": "Wasserturmweg",
        "latitude": 51.300795,
        "longitude": 12.314186
    },
    {
        "id": "000011405",
        "city": "Leipzig",
        "name": "Gärtnerei Großzschocher",
        "latitude": 51.301409,
        "longitude": 12.306154
    },
    {
        "id": "000011407",
        "city": "Leipzig",
        "name": "Mockauer/Volbedingstr.",
        "latitude": 51.364137,
        "longitude": 12.40207
    },
    {
        "id": "000011408",
        "city": "Leipzig",
        "name": "Apelstr./Historischer Betriebshof",
        "latitude": 51.355092,
        "longitude": 12.391189
    },
    {
        "id": "000011409",
        "city": "Leipzig",
        "name": "Hamburger Str.",
        "latitude": 51.35879,
        "longitude": 12.395785
    },
    {
        "id": "000011410",
        "city": "Leipzig",
        "name": "Wilhelm-Liebknecht-Platz",
        "latitude": 51.349794,
        "longitude": 12.377587
    },
    {
        "id": "000011411",
        "city": "Leipzig",
        "name": "Wittenberger Str.",
        "latitude": 51.353197,
        "longitude": 12.387387
    },
    {
        "id": "000011412",
        "city": "Leipzig",
        "name": "Hauptbahnhof/Wintergartenstr.",
        "latitude": 51.343179,
        "longitude": 12.383388
    },
    {
        "id": "000011413",
        "city": "Leipzig",
        "name": "Friedrichshafner Str.",
        "latitude": 51.368897,
        "longitude": 12.40659
    },
    {
        "id": "000011414",
        "city": "Leipzig",
        "name": "Döringstr.",
        "latitude": 51.372194,
        "longitude": 12.409794
    },
    {
        "id": "000011421",
        "city": "Leipzig",
        "name": "Wiederitzsch Nord, Salzhandelsstr.",
        "latitude": 51.403186,
        "longitude": 12.36732
    },
    {
        "id": "000011423",
        "city": "Leipzig",
        "name": "Schenkendorfstr.",
        "latitude": 51.324491,
        "longitude": 12.369497
    },
    {
        "id": "000011426",
        "city": "Leipzig",
        "name": "Dölitz, Straßenbahnhof",
        "latitude": 51.284791,
        "longitude": 12.394691
    },
    {
        "id": "000011428",
        "city": "Leipzig",
        "name": "Am Eichwinkel",
        "latitude": 51.282994,
        "longitude": 12.39529
    },
    {
        "id": "000011524",
        "city": "Leipzig",
        "name": "Am Sportpark",
        "latitude": 51.357192,
        "longitude": 12.315085
    },
    {
        "id": "000011525",
        "city": "Leipzig",
        "name": "Auensee",
        "latitude": 51.370197,
        "longitude": 12.314991
    },
    {
        "id": "000011526",
        "city": "Leipzig",
        "name": "Wittestr.",
        "latitude": 51.347695,
        "longitude": 12.301491
    },
    {
        "id": "000011527",
        "city": "Leipzig",
        "name": "Ernst-Keil-Str.",
        "latitude": 51.340494,
        "longitude": 12.300485
    },
    {
        "id": "000011529",
        "city": "Leipzig",
        "name": "Plaut-/Schomburgkstr.",
        "latitude": 51.337495,
        "longitude": 12.297786
    },
    {
        "id": "000011531",
        "city": "Leipzig",
        "name": "Wahren (Am Zuckmantel/Fr.-Bosse-Str.)",
        "latitude": 51.372997,
        "longitude": 12.324374
    },
    {
        "id": "000011535",
        "city": "Leipzig",
        "name": "Ahornstr.",
        "latitude": 51.356192,
        "longitude": 12.46019
    },
    {
        "id": "000011536",
        "city": "Leipzig",
        "name": "Paunsdorf Nord",
        "latitude": 51.361256,
        "longitude": 12.470454
    },
    {
        "id": "000011538",
        "city": "Leipzig",
        "name": "Am Vorwerk",
        "latitude": 51.352895,
        "longitude": 12.459195
    },
    {
        "id": "000011539",
        "city": "Leipzig",
        "name": "Barbarastr.",
        "latitude": 51.345595,
        "longitude": 12.449987
    },
    {
        "id": "000011540",
        "city": "Leipzig",
        "name": "Paunsdorf, Straßenbahnhof",
        "latitude": 51.345695,
        "longitude": 12.457589
    },
    {
        "id": "000011541",
        "city": "Leipzig",
        "name": "Ostheimstr.",
        "latitude": 51.345594,
        "longitude": 12.43659
    },
    {
        "id": "000011542",
        "city": "Leipzig",
        "name": "Paunsdorf, Theodor-Heuss-Str.",
        "latitude": 51.34639,
        "longitude": 12.444691
    },
    {
        "id": "000011543",
        "city": "Leipzig",
        "name": "Hermelinstr.",
        "latitude": 51.35879,
        "longitude": 12.473585
    },
    {
        "id": "000011553",
        "city": "Leipzig",
        "name": "Richard-Lehmann-/Zwickauer Str.",
        "latitude": 51.314602,
        "longitude": 12.394283
    },
    {
        "id": "000011554",
        "city": "Leipzig",
        "name": "Altenburger Str.",
        "latitude": 51.314992,
        "longitude": 12.382991
    },
    {
        "id": "000011555",
        "city": "Leipzig",
        "name": "Deutscher Platz",
        "latitude": 51.321591,
        "longitude": 12.399492
    },
    {
        "id": "000011556",
        "city": "Leipzig",
        "name": "An der Tabaksmühle",
        "latitude": 51.314095,
        "longitude": 12.406785
    },
    {
        "id": "000011557",
        "city": "Leipzig",
        "name": "Johannisallee",
        "latitude": 51.327296,
        "longitude": 12.388791
    },
    {
        "id": "000011558",
        "city": "Leipzig",
        "name": "Deutsche Nationalbibliothek",
        "latitude": 51.323562,
        "longitude": 12.395691
    },
    {
        "id": "000011559",
        "city": "Leipzig",
        "name": "Meusdorf",
        "latitude": 51.294491,
        "longitude": 12.439696
    },
    {
        "id": "000011563",
        "city": "Leipzig",
        "name": "Arthur-Hoffmann-/Richard-Lehmann-Str.",
        "latitude": 51.314997,
        "longitude": 12.378486
    },
    {
        "id": "000011564",
        "city": "Leipzig",
        "name": "Karl-Liebknecht-/Kurt-Eisner-Str.",
        "latitude": 51.320698,
        "longitude": 12.373495
    },
    {
        "id": "000011584",
        "city": "Leipzig",
        "name": "Härtelstr.",
        "latitude": 51.332792,
        "longitude": 12.377542
    },
    {
        "id": "000011652",
        "city": "Leipzig",
        "name": "Messeverwaltung",
        "latitude": 51.395154,
        "longitude": 12.394499
    },
    {
        "id": "000011653",
        "city": "Leipzig",
        "name": "Am alten Flughafen",
        "latitude": 51.392118,
        "longitude": 12.397494
    },
    {
        "id": "000011654",
        "city": "Leipzig",
        "name": "Martin-Herrmann-Str.",
        "latitude": 51.307297,
        "longitude": 12.322086
    },
    {
        "id": "000011656",
        "city": "Leipzig",
        "name": "Mühlweg",
        "latitude": 51.33679,
        "longitude": 12.466494
    },
    {
        "id": "000011657",
        "city": "Leipzig",
        "name": "Engelsdorf, Arthur-Winkler-Str.",
        "latitude": 51.337998,
        "longitude": 12.475485
    },
    {
        "id": "000011658",
        "city": "Leipzig",
        "name": "Engelsdorf, Gymnasium",
        "latitude": 51.334294,
        "longitude": 12.482397
    },
    {
        "id": "000011659",
        "city": "Leipzig",
        "name": "Engelsdorf, Ernst-Guhr-Str.",
        "latitude": 51.33669,
        "longitude": 12.471984
    },
    {
        "id": "000011660",
        "city": "Leipzig",
        "name": "Einfahrt Sachsenpark",
        "latitude": 51.399591,
        "longitude": 12.401484
    },
    {
        "id": "000011661",
        "city": "Leipzig",
        "name": "Sachsenpark",
        "latitude": 51.401592,
        "longitude": 12.396989
    },
    {
        "id": "000011683",
        "city": "Leipzig",
        "name": "Lausener Bogen",
        "latitude": 51.299794,
        "longitude": 12.261187
    },
    {
        "id": "000011685",
        "city": "Leipzig",
        "name": "Am Silo",
        "latitude": 51.304591,
        "longitude": 12.260695
    },
    {
        "id": "000011689",
        "city": "Leipzig",
        "name": "Lausen, Wolkenweg",
        "latitude": 51.30139,
        "longitude": 12.269089
    },
    {
        "id": "000011692",
        "city": "Leipzig",
        "name": "Bismarckstr.",
        "latitude": 51.300397,
        "longitude": 12.319995
    },
    {
        "id": "000011695",
        "city": "Leipzig",
        "name": "Raiffeisenstr.",
        "latitude": 51.299592,
        "longitude": 12.287693
    },
    {
        "id": "000011697",
        "city": "Leipzig",
        "name": "Siedlung Florian Geyer",
        "latitude": 51.296997,
        "longitude": 12.289487
    },
    {
        "id": "000011699",
        "city": "Leipzig",
        "name": "S-Bahnhof Karlsruher Str. (Bus)",
        "latitude": 51.316991,
        "longitude": 12.278693
    },
    {
        "id": "000011702",
        "city": "Leipzig",
        "name": "Am kleinen Feld",
        "latitude": 51.316593,
        "longitude": 12.263987
    },
    {
        "id": "000011767",
        "city": "Leipzig",
        "name": "Rückmarsdorf, Löwen Center",
        "latitude": 51.345621,
        "longitude": 12.269683
    },
    {
        "id": "000011768",
        "city": "Leipzig",
        "name": "Rückmarsdorf, Sandberg",
        "latitude": 51.346691,
        "longitude": 12.258388
    },
    {
        "id": "000011769",
        "city": "Leipzig",
        "name": "Zur Kaninchenfarm",
        "latitude": 51.34339,
        "longitude": 12.295697
    },
    {
        "id": "000011770",
        "city": "Leipzig",
        "name": "Rückmarsdorf, Zum Bahnhof",
        "latitude": 51.344497,
        "longitude": 12.281893
    },
    {
        "id": "000011771",
        "city": "Leipzig",
        "name": "Lindenau, Friedhof",
        "latitude": 51.340692,
        "longitude": 12.314783
    },
    {
        "id": "000011772",
        "city": "Leipzig",
        "name": "Merseburger/Schomburgkstr.",
        "latitude": 51.342795,
        "longitude": 12.301784
    },
    {
        "id": "000011775",
        "city": "Leipzig",
        "name": "Knauthain, Am Weiher",
        "latitude": 51.272892,
        "longitude": 12.311086
    },
    {
        "id": "000011777",
        "city": "Leipzig",
        "name": "Knauthain, Schönbergstr.",
        "latitude": 51.275497,
        "longitude": 12.311488
    },
    {
        "id": "000011782",
        "city": "Leipzig",
        "name": "Thomas-Müntzer-Siedlung",
        "latitude": 51.269793,
        "longitude": 12.302391
    },
    {
        "id": "000011783",
        "city": "Leipzig",
        "name": "Am Klucksgraben",
        "latitude": 51.266895,
        "longitude": 12.297697
    },
    {
        "id": "000011786",
        "city": "Leipzig",
        "name": "Pelzgasse",
        "latitude": 51.401692,
        "longitude": 12.392583
    },
    {
        "id": "000011787",
        "city": "Leipzig",
        "name": "Zuckelhausen",
        "latitude": 51.304992,
        "longitude": 12.45289
    },
    {
        "id": "000011788",
        "city": "Leipzig",
        "name": "Seehausener Allee",
        "latitude": 51.399174,
        "longitude": 12.397571
    },
    {
        "id": "000011789",
        "city": "Leipzig",
        "name": "Gypsbergstr.",
        "latitude": 51.376529,
        "longitude": 12.399255
    },
    {
        "id": "000011790",
        "city": "Leipzig",
        "name": "Gewerbegebiet Podelwitz",
        "latitude": 51.409509,
        "longitude": 12.394039
    },
    {
        "id": "000011792",
        "city": "Leipzig",
        "name": "Siedlung Waldfrieden",
        "latitude": 51.312891,
        "longitude": 12.443297
    },
    {
        "id": "000011821",
        "city": "Leipzig",
        "name": "Geschwister-Scholl-Str.",
        "latitude": 51.320392,
        "longitude": 12.256092
    },
    {
        "id": "000011823",
        "city": "Leipzig",
        "name": "Miltitz, Friedhof",
        "latitude": 51.318698,
        "longitude": 12.247491
    },
    {
        "id": "000011826",
        "city": "Leipzig",
        "name": "Str. am See",
        "latitude": 51.316193,
        "longitude": 12.261591
    },
    {
        "id": "000011827",
        "city": "Leipzig",
        "name": "Großmiltitzer Str.",
        "latitude": 51.320289,
        "longitude": 12.261394
    },
    {
        "id": "000011831",
        "city": "Leipzig",
        "name": "Pahlenweg",
        "latitude": 51.292497,
        "longitude": 12.427987
    },
    {
        "id": "000011900",
        "city": "Leipzig",
        "name": "Pleißenburgwerkstätten",
        "latitude": 51.37089,
        "longitude": 12.430384
    },
    {
        "id": "000011901",
        "city": "Leipzig",
        "name": "Telemannstr.",
        "latitude": 51.32739,
        "longitude": 12.367485
    },
    {
        "id": "000011902",
        "city": "Leipzig",
        "name": "Seelenbinderstr.",
        "latitude": 51.36659,
        "longitude": 12.350095
    },
    {
        "id": "000011903",
        "city": "Leipzig",
        "name": "Südvorstadt, Lößniger Str.",
        "latitude": 51.320593,
        "longitude": 12.381796
    },
    {
        "id": "000011905",
        "city": "Leipzig",
        "name": "Congress Center",
        "latitude": 51.396918,
        "longitude": 12.399388
    },
    {
        "id": "000011906",
        "city": "Leipzig",
        "name": "Robert-Schumann-Str. (Ferdinand-Rhode-Str.)",
        "latitude": 51.329625,
        "longitude": 12.366673
    },
    {
        "id": "000011907",
        "city": "Leipzig",
        "name": "Braun-/Heiterblickstr.",
        "latitude": 51.36899,
        "longitude": 12.430788
    },
    {
        "id": "000011908",
        "city": "Leipzig",
        "name": "Lidicestr.",
        "latitude": 51.377496,
        "longitude": 12.430189
    },
    {
        "id": "000011916",
        "city": "Leipzig",
        "name": "Schwarzenbergweg",
        "latitude": 51.286893,
        "longitude": 12.429591
    },
    {
        "id": "000011929",
        "city": "Leipzig",
        "name": "Handwerkerhof",
        "latitude": 51.326393,
        "longitude": 12.436086
    },
    {
        "id": "000011950",
        "city": "Leipzig",
        "name": "S-Bahnhof Anger-Crottendorf (Bus)",
        "latitude": 51.33339,
        "longitude": 12.418566
    },
    {
        "id": "000011952",
        "city": "Leipzig",
        "name": "Ostfriedhof",
        "latitude": 51.332431,
        "longitude": 12.422442
    },
    {
        "id": "000011956",
        "city": "Leipzig",
        "name": "Stötteritz, Holzhäuser Str.",
        "latitude": 51.318696,
        "longitude": 12.431191
    },
    {
        "id": "000011958",
        "city": "Leipzig",
        "name": "Martinstr.",
        "latitude": 51.334214,
        "longitude": 12.413101
    },
    {
        "id": "000011960",
        "city": "Leipzig",
        "name": "Rathaus Stötteritz",
        "latitude": 51.319291,
        "longitude": 12.420085
    },
    {
        "id": "000011962",
        "city": "Leipzig",
        "name": "Kolmstr.",
        "latitude": 51.320096,
        "longitude": 12.426689
    },
    {
        "id": "000011964",
        "city": "Leipzig",
        "name": "Breslauer Str.",
        "latitude": 51.32419,
        "longitude": 12.414595
    },
    {
        "id": "000011968",
        "city": "Leipzig",
        "name": "Weißestr.",
        "latitude": 51.321996,
        "longitude": 12.418895
    },
    {
        "id": "000011970",
        "city": "Leipzig",
        "name": "Gutenbergplatz",
        "latitude": 51.334448,
        "longitude": 12.391788
    },
    {
        "id": "000011972",
        "city": "Leipzig",
        "name": "Ostplatz",
        "latitude": 51.331676,
        "longitude": 12.395889
    },
    {
        "id": "000012013",
        "city": "Leipzig",
        "name": "Baalsdorf, Zaucheweg",
        "latitude": 51.320793,
        "longitude": 12.493685
    },
    {
        "id": "000012015",
        "city": "Leipzig",
        "name": "Hirschfeld",
        "latitude": 51.324168,
        "longitude": 12.525343
    },
    {
        "id": "000012016",
        "city": "Leipzig",
        "name": "Kleinpösna",
        "latitude": 51.309496,
        "longitude": 12.518091
    },
    {
        "id": "000012017",
        "city": "Leipzig",
        "name": "Althen, Oertgering",
        "latitude": 51.346693,
        "longitude": 12.519392
    },
    {
        "id": "000012018",
        "city": "Leipzig",
        "name": "Althen, Althener Anger",
        "latitude": 51.338789,
        "longitude": 12.517896
    },
    {
        "id": "000012020",
        "city": "Leipzig",
        "name": "Althen, Freundschaftsring",
        "latitude": 51.339898,
        "longitude": 12.522589
    },
    {
        "id": "000012022",
        "city": "Leipzig",
        "name": "Walter-Heise-Str.",
        "latitude": 51.30259,
        "longitude": 12.464487
    },
    {
        "id": "000012023",
        "city": "Leipzig",
        "name": "Feldstr.",
        "latitude": 51.303194,
        "longitude": 12.441595
    },
    {
        "id": "000012025",
        "city": "Leipzig",
        "name": "Schweizer Bogen",
        "latitude": 51.302097,
        "longitude": 12.437597
    },
    {
        "id": "000012026",
        "city": "Leipzig",
        "name": "Virchow-/Coppistr.",
        "latitude": 51.366898,
        "longitude": 12.375988
    },
    {
        "id": "000012027",
        "city": "Leipzig",
        "name": "An den Pferdnerkabeln",
        "latitude": 51.380096,
        "longitude": 12.436289
    },
    {
        "id": "000012028",
        "city": "Leipzig",
        "name": "Mathiesenstr.",
        "latitude": 51.352091,
        "longitude": 12.322485
    },
    {
        "id": "000012031",
        "city": "Leipzig",
        "name": "Engelsdorf, Arnoldplatz",
        "latitude": 51.348192,
        "longitude": 12.493991
    },
    {
        "id": "000012032",
        "city": "Leipzig",
        "name": "Engelsdorf, Hans-Weigel-Str.",
        "latitude": 51.342794,
        "longitude": 12.479596
    },
    {
        "id": "000012033",
        "city": "Leipzig",
        "name": "Engelsdorf, Hugo-Aurig-Str.",
        "latitude": 51.343095,
        "longitude": 12.486697
    },
    {
        "id": "000012034",
        "city": "Leipzig",
        "name": "Regenbogen",
        "latitude": 51.300794,
        "longitude": 12.266293
    },
    {
        "id": "000012036",
        "city": "Leipzig",
        "name": "Strümpellstr.",
        "latitude": 51.305595,
        "longitude": 12.436395
    },
    {
        "id": "000012038",
        "city": "Leipzig",
        "name": "Herzzentrum",
        "latitude": 51.306495,
        "longitude": 12.438787
    },
    {
        "id": "000012040",
        "city": "Leipzig",
        "name": "Engelsdorf, Klempererstr.",
        "latitude": 51.340293,
        "longitude": 12.489284
    },
    {
        "id": "000012041",
        "city": "Leipzig",
        "name": "Engelsdorf, Kirchweg",
        "latitude": 51.336789,
        "longitude": 12.487395
    },
    {
        "id": "000012046",
        "city": "Leipzig",
        "name": "Engelsdorf, Sabinenstr.",
        "latitude": 51.346894,
        "longitude": 12.492887
    },
    {
        "id": "000012049",
        "city": "Leipzig",
        "name": "Engelsdorf, Sternenstr.",
        "latitude": 51.346395,
        "longitude": 12.487895
    },
    {
        "id": "000012072",
        "city": "Leipzig",
        "name": "Prager/Russenstr.",
        "latitude": 51.307795,
        "longitude": 12.422085
    },
    {
        "id": "000012073",
        "city": "Leipzig",
        "name": "Probstheida",
        "latitude": 51.303796,
        "longitude": 12.426291
    },
    {
        "id": "000012075",
        "city": "Leipzig",
        "name": "Probstheida, Buswendestelle",
        "latitude": 51.304111,
        "longitude": 12.424134
    },
    {
        "id": "000012076",
        "city": "Leipzig",
        "name": "Völkerschlachtdenkmal (Tram/Bus)",
        "latitude": 51.314594,
        "longitude": 12.411887
    },
    {
        "id": "000012078",
        "city": "Leipzig",
        "name": "Südfriedhof",
        "latitude": 51.312094,
        "longitude": 12.416192
    },
    {
        "id": "000012079",
        "city": "Leipzig",
        "name": "Altes Messegelände",
        "latitude": 51.321045,
        "longitude": 12.40433
    },
    {
        "id": "000012080",
        "city": "Leipzig",
        "name": "Naunhofer Str.",
        "latitude": 51.318067,
        "longitude": 12.407783
    },
    {
        "id": "000012083",
        "city": "Leipzig",
        "name": "Witzgallstr.",
        "latitude": 51.328243,
        "longitude": 12.399539
    },
    {
        "id": "000012086",
        "city": "Leipzig",
        "name": "Franzosenallee",
        "latitude": 51.30079,
        "longitude": 12.430686
    },
    {
        "id": "000012088",
        "city": "Leipzig",
        "name": "Roseggerstr.",
        "latitude": 51.29749,
        "longitude": 12.435589
    },
    {
        "id": "000012135",
        "city": "Leipzig",
        "name": "Höltystr.",
        "latitude": 51.295308,
        "longitude": 12.432399
    },
    {
        "id": "000012145",
        "city": "Leipzig",
        "name": "Markt",
        "latitude": 51.339992,
        "longitude": 12.374497
    },
    {
        "id": "000012146",
        "city": "Leipzig",
        "name": "Zur Lindenhöhe",
        "latitude": 51.391491,
        "longitude": 12.335489
    },
    {
        "id": "000012147",
        "city": "Leipzig",
        "name": "Lindenallee",
        "latitude": 51.399395,
        "longitude": 12.341785
    },
    {
        "id": "000012148",
        "city": "Leipzig",
        "name": "Sophienstr.",
        "latitude": 51.391394,
        "longitude": 12.322791
    },
    {
        "id": "000012149",
        "city": "Leipzig",
        "name": "An der Schule",
        "latitude": 51.392393,
        "longitude": 12.333197
    },
    {
        "id": "000012150",
        "city": "Leipzig",
        "name": "Lindenthal, Kirche",
        "latitude": 51.394296,
        "longitude": 12.336785
    },
    {
        "id": "000012151",
        "city": "Leipzig",
        "name": "Lindenthaler Hauptstr.",
        "latitude": 51.391232,
        "longitude": 12.327853
    },
    {
        "id": "000012152",
        "city": "Leipzig",
        "name": "Landsberger/Bahnhofstr.",
        "latitude": 51.38659,
        "longitude": 12.349387
    },
    {
        "id": "000012153",
        "city": "Leipzig",
        "name": "Lindenthal, An der Windmühle",
        "latitude": 51.392833,
        "longitude": 12.339841
    },
    {
        "id": "000012155",
        "city": "Leipzig",
        "name": "Pommernstr.",
        "latitude": 51.33119,
        "longitude": 12.428895
    },
    {
        "id": "000012166",
        "city": "Leipzig",
        "name": "Böhlitz-Ehrenberg, Burghausener Str.",
        "latitude": 51.361692,
        "longitude": 12.271188
    },
    {
        "id": "000012167",
        "city": "Leipzig",
        "name": "Feuerbachstr.",
        "latitude": 51.345795,
        "longitude": 12.357192
    },
    {
        "id": "000012168",
        "city": "Leipzig",
        "name": "Ludwig-Jahn-Str.",
        "latitude": 51.360297,
        "longitude": 12.285996
    },
    {
        "id": "000012169",
        "city": "Leipzig",
        "name": "Forstweg",
        "latitude": 51.36099,
        "longitude": 12.279885
    },
    {
        "id": "000012170",
        "city": "Leipzig",
        "name": "Barnecker Str.",
        "latitude": 51.355695,
        "longitude": 12.299984
    },
    {
        "id": "000012171",
        "city": "Leipzig",
        "name": "Südstr.",
        "latitude": 51.359291,
        "longitude": 12.29299
    },
    {
        "id": "000012172",
        "city": "Leipzig",
        "name": "Pfingstweide",
        "latitude": 51.349995,
        "longitude": 12.309496
    },
    {
        "id": "000012173",
        "city": "Leipzig",
        "name": "Philipp-Reis-Str.",
        "latitude": 51.351695,
        "longitude": 12.305986
    },
    {
        "id": "000012174",
        "city": "Leipzig",
        "name": "Am Mückenschlösschen",
        "latitude": 51.349794,
        "longitude": 12.355086
    },
    {
        "id": "000012175",
        "city": "Leipzig",
        "name": "Stallbaumstr.",
        "latitude": 51.358291,
        "longitude": 12.359786
    },
    {
        "id": "000012199",
        "city": "Leipzig",
        "name": "Wasserwerk Windorf",
        "latitude": 51.294393,
        "longitude": 12.320192
    },
    {
        "id": "000012201",
        "city": "Leipzig",
        "name": "Knauthain, Seumestr.",
        "latitude": 51.286771,
        "longitude": 12.313763
    },
    {
        "id": "000012202",
        "city": "Leipzig",
        "name": "Gottfried-Keller-Str.",
        "latitude": 51.295286,
        "longitude": 12.434994
    },
    {
        "id": "000012203",
        "city": "Leipzig",
        "name": "Huttenstr.",
        "latitude": 51.300575,
        "longitude": 12.32794
    },
    {
        "id": "000012205",
        "city": "Leipzig",
        "name": "Großzschocher, Gerhard-Ellrodt-Str.",
        "latitude": 51.30039,
        "longitude": 12.321486
    },
    {
        "id": "000012207",
        "city": "Leipzig",
        "name": "Arthur-Nagel-Str.",
        "latitude": 51.308392,
        "longitude": 12.326583
    },
    {
        "id": "000012209",
        "city": "Leipzig",
        "name": "Kunzestr.",
        "latitude": 51.304691,
        "longitude": 12.327391
    },
    {
        "id": "000012211",
        "city": "Leipzig",
        "name": "Schwartzestr.",
        "latitude": 51.315689,
        "longitude": 12.326093
    },
    {
        "id": "000012213",
        "city": "Leipzig",
        "name": "Kleinzschocher, Kötzschauer Str.",
        "latitude": 51.312391,
        "longitude": 12.325697
    },
    {
        "id": "000012217",
        "city": "Leipzig",
        "name": "Knautkleeberg",
        "latitude": 51.277793,
        "longitude": 12.30979
    },
    {
        "id": "000012250",
        "city": "Leipzig",
        "name": "Mozartstr. (Ferdinand-Rhode-Str.)",
        "latitude": 51.331373,
        "longitude": 12.36594
    },
    {
        "id": "000012252",
        "city": "Leipzig",
        "name": "Willi-Bredel-Str.",
        "latitude": 51.302991,
        "longitude": 12.401185
    },
    {
        "id": "000012253",
        "city": "Leipzig",
        "name": "Wächterstr. (Ferdinand-Rhode-Str.)",
        "latitude": 51.333211,
        "longitude": 12.365171
    },
    {
        "id": "000012263",
        "city": "Leipzig",
        "name": "An den Platanen",
        "latitude": 51.326798,
        "longitude": 12.441584
    },
    {
        "id": "000012264",
        "city": "Leipzig",
        "name": "Hasenheide",
        "latitude": 51.334492,
        "longitude": 12.460593
    },
    {
        "id": "000012265",
        "city": "Leipzig",
        "name": "Engelsdorf, Ärztehaus",
        "latitude": 51.339396,
        "longitude": 12.461393
    },
    {
        "id": "000012266",
        "city": "Leipzig",
        "name": "Am Bahndamm",
        "latitude": 51.332498,
        "longitude": 12.457787
    },
    {
        "id": "000012267",
        "city": "Leipzig",
        "name": "Dr.-Wilhelm-Külz-Str.",
        "latitude": 51.331494,
        "longitude": 12.436295
    },
    {
        "id": "000012268",
        "city": "Leipzig",
        "name": "Mölkau, Gemeindeamt",
        "latitude": 51.331093,
        "longitude": 12.44139
    },
    {
        "id": "000012269",
        "city": "Leipzig",
        "name": "Gottschalkstr.",
        "latitude": 51.32579,
        "longitude": 12.452589
    },
    {
        "id": "000012270",
        "city": "Leipzig",
        "name": "Bahnhof Mölkau (Bus)",
        "latitude": 51.324597,
        "longitude": 12.459789
    },
    {
        "id": "000012271",
        "city": "Leipzig",
        "name": "Hohenheida, Lindengasse",
        "latitude": 51.41979,
        "longitude": 12.442893
    },
    {
        "id": "000012274",
        "city": "Leipzig",
        "name": "Breitenfeld, Parkring",
        "latitude": 51.404693,
        "longitude": 12.347391
    },
    {
        "id": "000012276",
        "city": "Leipzig",
        "name": "Breitenfeld, Gewerbegebiet",
        "latitude": 51.404624,
        "longitude": 12.359203
    },
    {
        "id": "000012281",
        "city": "Leipzig",
        "name": "Gohlis, Landsberger Str.",
        "latitude": 51.381483,
        "longitude": 12.355336
    },
    {
        "id": "000012282",
        "city": "Leipzig",
        "name": "Lortzingstr.",
        "latitude": 51.345594,
        "longitude": 12.371391
    },
    {
        "id": "000012283",
        "city": "Leipzig",
        "name": "Landsberger/Max-Liebermann-Str.",
        "latitude": 51.37589,
        "longitude": 12.361292
    },
    {
        "id": "000012284",
        "city": "Leipzig",
        "name": "Beyerleinstr.",
        "latitude": 51.378995,
        "longitude": 12.358689
    },
    {
        "id": "000012285",
        "city": "Leipzig",
        "name": "S-Bahnhof Coppiplatz (Tram/Bus)",
        "latitude": 51.367291,
        "longitude": 12.366694
    },
    {
        "id": "000012286",
        "city": "Leipzig",
        "name": "Viertelsweg",
        "latitude": 51.371389,
        "longitude": 12.364596
    },
    {
        "id": "000012287",
        "city": "Leipzig",
        "name": "Menckestr.",
        "latitude": 51.359095,
        "longitude": 12.362488
    },
    {
        "id": "000012288",
        "city": "Leipzig",
        "name": "Georg-Schumann-/Lindenthaler Str.",
        "latitude": 51.36259,
        "longitude": 12.365689
    },
    {
        "id": "000012289",
        "city": "Leipzig",
        "name": "Zoo",
        "latitude": 51.348598,
        "longitude": 12.371684
    },
    {
        "id": "000012290",
        "city": "Leipzig",
        "name": "Nordplatz",
        "latitude": 51.35249,
        "longitude": 12.373592
    },
    {
        "id": "000012316",
        "city": "Leipzig",
        "name": "Henriettenstr.",
        "latitude": 51.333697,
        "longitude": 12.324297
    },
    {
        "id": "000012318",
        "city": "Leipzig",
        "name": "Lindenau, Bushof",
        "latitude": 51.331445,
        "longitude": 12.318422
    },
    {
        "id": "000012320",
        "city": "Leipzig",
        "name": "Lindenauer Markt",
        "latitude": 51.336791,
        "longitude": 12.334986
    },
    {
        "id": "000012324",
        "city": "Leipzig",
        "name": "Rehbach",
        "latitude": 51.27259,
        "longitude": 12.27679
    },
    {
        "id": "000012327",
        "city": "Leipzig",
        "name": "Grünauer Allee (Bus/Tram)",
        "latitude": 51.325996,
        "longitude": 12.301897
    },
    {
        "id": "000012328",
        "city": "Leipzig",
        "name": "Parkallee",
        "latitude": 51.324896,
        "longitude": 12.294987
    },
    {
        "id": "000012395",
        "city": "Leipzig",
        "name": "Holzhausen, Sophienhöhe",
        "latitude": 51.313589,
        "longitude": 12.455588
    },
    {
        "id": "000012396",
        "city": "Leipzig",
        "name": "Mölkau Süd",
        "latitude": 51.325398,
        "longitude": 12.452789
    },
    {
        "id": "000012398",
        "city": "Leipzig",
        "name": "Kärrnerstr.",
        "latitude": 51.312792,
        "longitude": 12.464596
    },
    {
        "id": "000012399",
        "city": "Leipzig",
        "name": "Holzhausen, Sächsisches Haus",
        "latitude": 51.306575,
        "longitude": 12.464744
    },
    {
        "id": "000012400",
        "city": "Leipzig",
        "name": "Holzhausen, Hauptstr.",
        "latitude": 51.309792,
        "longitude": 12.465087
    },
    {
        "id": "000012402",
        "city": "Leipzig",
        "name": "Mölkauer Str.",
        "latitude": 51.310195,
        "longitude": 12.452693
    },
    {
        "id": "000012403",
        "city": "Leipzig",
        "name": "Arthur-Polenz-Str.",
        "latitude": 51.307692,
        "longitude": 12.457684
    },
    {
        "id": "000012405",
        "city": "Leipzig",
        "name": "S-Bahnhof Wahren (Bus)",
        "latitude": 51.380275,
        "longitude": 12.323925
    },
    {
        "id": "000012406",
        "city": "Leipzig",
        "name": "Zeisigweg",
        "latitude": 51.379391,
        "longitude": 12.331289
    },
    {
        "id": "000012407",
        "city": "Leipzig",
        "name": "An den Badeanlagen",
        "latitude": 51.278992,
        "longitude": 12.466695
    },
    {
        "id": "000012409",
        "city": "Leipzig",
        "name": "Liebertwolkwitzer Markt",
        "latitude": 51.28299,
        "longitude": 12.464085
    },
    {
        "id": "000012411",
        "city": "Leipzig",
        "name": "Portitz, Cradefelder Str.",
        "latitude": 51.387698,
        "longitude": 12.462095
    },
    {
        "id": "000012412",
        "city": "Leipzig",
        "name": "Plaußig, Gewerbegebiet",
        "latitude": 51.396341,
        "longitude": 12.455633
    },
    {
        "id": "000012413",
        "city": "Leipzig",
        "name": "Plaußig, Grundstr.",
        "latitude": 51.391295,
        "longitude": 12.455986
    },
    {
        "id": "000012414",
        "city": "Leipzig",
        "name": "Plaußig, Plaußiger Dorfstr.",
        "latitude": 51.392089,
        "longitude": 12.454996
    },
    {
        "id": "000012417",
        "city": "Leipzig",
        "name": "Kiewer Str.",
        "latitude": 51.318995,
        "longitude": 12.277789
    },
    {
        "id": "000012418",
        "city": "Leipzig",
        "name": "Plovdiver Str.",
        "latitude": 51.317193,
        "longitude": 12.268592
    },
    {
        "id": "000012419",
        "city": "Leipzig",
        "name": "Binzer Str.",
        "latitude": 51.311893,
        "longitude": 12.259392
    },
    {
        "id": "000012420",
        "city": "Leipzig",
        "name": "Am Kirschberg",
        "latitude": 51.321194,
        "longitude": 12.283686
    },
    {
        "id": "000012421",
        "city": "Leipzig",
        "name": "Siriusweg",
        "latitude": 51.326292,
        "longitude": 12.266685
    },
    {
        "id": "000012422",
        "city": "Leipzig",
        "name": "Uranusstr.",
        "latitude": 51.324991,
        "longitude": 12.272692
    },
    {
        "id": "000012423",
        "city": "Leipzig",
        "name": "Schönauer Ring",
        "latitude": 51.32279,
        "longitude": 12.287388
    },
    {
        "id": "000012424",
        "city": "Leipzig",
        "name": "Grünau-Nord",
        "latitude": 51.325892,
        "longitude": 12.282587
    },
    {
        "id": "000012425",
        "city": "Leipzig",
        "name": "Jupiterstr.",
        "latitude": 51.320896,
        "longitude": 12.267995
    },
    {
        "id": "000012426",
        "city": "Leipzig",
        "name": "Saturnstr.",
        "latitude": 51.323391,
        "longitude": 12.264297
    },
    {
        "id": "000012427",
        "city": "Leipzig",
        "name": "Braun-/Bautzner Str.",
        "latitude": 51.35779,
        "longitude": 12.430984
    },
    {
        "id": "000012428",
        "city": "Leipzig",
        "name": "Brahestr.",
        "latitude": 51.364595,
        "longitude": 12.438388
    },
    {
        "id": "000012429",
        "city": "Leipzig",
        "name": "Abtnaundorf",
        "latitude": 51.366096,
        "longitude": 12.422786
    },
    {
        "id": "000012430",
        "city": "Leipzig",
        "name": "Stöhrer-/Braunstr.",
        "latitude": 51.365897,
        "longitude": 12.430786
    },
    {
        "id": "000012431",
        "city": "Leipzig",
        "name": "Heiterblickstr.",
        "latitude": 51.369094,
        "longitude": 12.425092
    },
    {
        "id": "000012432",
        "city": "Leipzig",
        "name": "Sosaer Str.",
        "latitude": 51.377998,
        "longitude": 12.436692
    },
    {
        "id": "000012433",
        "city": "Leipzig",
        "name": "Freiberger Str.",
        "latitude": 51.375094,
        "longitude": 12.432696
    },
    {
        "id": "000012434",
        "city": "Leipzig",
        "name": "Julian-Marchlewski-Str.",
        "latitude": 51.356795,
        "longitude": 12.427793
    },
    {
        "id": "000012435",
        "city": "Leipzig",
        "name": "Schönefeld Ost (Verbundnetz Gas AG)",
        "latitude": 51.361899,
        "longitude": 12.430674
    },
    {
        "id": "000012446",
        "city": "Leipzig",
        "name": "Plaußig, Fuchsberg",
        "latitude": 51.395658,
        "longitude": 12.437298
    },
    {
        "id": "000012530",
        "city": "Leipzig",
        "name": "Rudolf-Breitscheid-Str.",
        "latitude": 51.389798,
        "longitude": 12.319787
    },
    {
        "id": "000012531",
        "city": "Leipzig",
        "name": "Lindenthal, Gemeindeamt",
        "latitude": 51.39229,
        "longitude": 12.328591
    },
    {
        "id": "000012532",
        "city": "Leipzig",
        "name": "Wilhelmstr.",
        "latitude": 51.38449,
        "longitude": 12.322089
    },
    {
        "id": "000012533",
        "city": "Leipzig",
        "name": "Wilhelm-Pfennig-Str.",
        "latitude": 51.387496,
        "longitude": 12.321991
    },
    {
        "id": "000012534",
        "city": "Leipzig",
        "name": "Buchfinkenweg",
        "latitude": 51.379089,
        "longitude": 12.327991
    },
    {
        "id": "000012535",
        "city": "Leipzig",
        "name": "Schulstr.",
        "latitude": 51.325997,
        "longitude": 12.447696
    },
    {
        "id": "000012537",
        "city": "Leipzig",
        "name": "Äußerer Zeisigweg",
        "latitude": 51.386389,
        "longitude": 12.331194
    },
    {
        "id": "000012539",
        "city": "Leipzig",
        "name": "Lange Trift",
        "latitude": 51.386995,
        "longitude": 12.325389
    },
    {
        "id": "000012540",
        "city": "Leipzig",
        "name": "An der Hufschmiede",
        "latitude": 51.395029,
        "longitude": 12.33819
    },
    {
        "id": "000012542",
        "city": "Leipzig",
        "name": "Schwarzes Ross",
        "latitude": 51.282192,
        "longitude": 12.461287
    },
    {
        "id": "000012543",
        "city": "Leipzig",
        "name": "Liebertwolkwitz, Störmthaler Str.",
        "latitude": 51.277497,
        "longitude": 12.469794
    },
    {
        "id": "000012544",
        "city": "Leipzig",
        "name": "Monarchenhügel",
        "latitude": 51.291397,
        "longitude": 12.443996
    },
    {
        "id": "000012545",
        "city": "Leipzig",
        "name": "An der Brauerei",
        "latitude": 51.283692,
        "longitude": 12.458589
    },
    {
        "id": "000012547",
        "city": "Leipzig",
        "name": "Zur alten Sandgrube",
        "latitude": 51.280394,
        "longitude": 12.46399
    },
    {
        "id": "000012550",
        "city": "Leipzig",
        "name": "Eulengraben",
        "latitude": 51.270894,
        "longitude": 12.482297
    },
    {
        "id": "000012552",
        "city": "Leipzig",
        "name": "Diakonissenhaus",
        "latitude": 51.343792,
        "longitude": 12.321195
    },
    {
        "id": "000012553",
        "city": "Leipzig",
        "name": "Rathaus Leutzsch",
        "latitude": 51.347791,
        "longitude": 12.31399
    },
    {
        "id": "000012554",
        "city": "Leipzig",
        "name": "Wielandstr.",
        "latitude": 51.341496,
        "longitude": 12.324489
    },
    {
        "id": "000012555",
        "city": "Leipzig",
        "name": "Georg-Schwarz-/Merseburger Str.",
        "latitude": 51.337397,
        "longitude": 12.327293
    },
    {
        "id": "000012556",
        "city": "Leipzig",
        "name": "Miltitz",
        "latitude": 51.325345,
        "longitude": 12.263245
    },
    {
        "id": "000012561",
        "city": "Leipzig",
        "name": "Otto-Schmiedt-Str.",
        "latitude": 51.350196,
        "longitude": 12.322089
    },
    {
        "id": "000012564",
        "city": "Leipzig",
        "name": "Paul-Michael-Str.",
        "latitude": 51.350291,
        "longitude": 12.317789
    },
    {
        "id": "000012567",
        "city": "Leipzig",
        "name": "Demmeringstr.",
        "latitude": 51.330897,
        "longitude": 12.310789
    },
    {
        "id": "000012568",
        "city": "Leipzig",
        "name": "Dr.-Hermann-Duncker-Str.",
        "latitude": 51.333493,
        "longitude": 12.306096
    },
    {
        "id": "000012599",
        "city": "Leipzig",
        "name": "Brand-/Selnecker Str.",
        "latitude": 51.309196,
        "longitude": 12.369494
    },
    {
        "id": "000012636",
        "city": "Leipzig",
        "name": "Karl-Friedrich-Str.",
        "latitude": 51.323009,
        "longitude": 12.452996
    },
    {
        "id": "000012645",
        "city": "Leipzig",
        "name": "Roßstr.",
        "latitude": 51.286893,
        "longitude": 12.465584
    },
    {
        "id": "000012690",
        "city": "Leipzig",
        "name": "Theresienstr.",
        "latitude": 51.360495,
        "longitude": 12.38659
    },
    {
        "id": "000012697",
        "city": "Leipzig",
        "name": "Delitzscher/Theresienstr.",
        "latitude": 51.359394,
        "longitude": 12.380491
    },
    {
        "id": "000012698",
        "city": "Leipzig",
        "name": "Mariannenpark",
        "latitude": 51.352292,
        "longitude": 12.399684
    },
    {
        "id": "000012700",
        "city": "Leipzig",
        "name": "Rackwitzer Str.",
        "latitude": 51.35799,
        "longitude": 12.397938
    },
    {
        "id": "000012702",
        "city": "Leipzig",
        "name": "Kleiststr.",
        "latitude": 51.366192,
        "longitude": 12.38049
    },
    {
        "id": "000012703",
        "city": "Leipzig",
        "name": "Hartzstr.",
        "latitude": 51.361695,
        "longitude": 12.390485
    },
    {
        "id": "000012704",
        "city": "Leipzig",
        "name": "Bertolt-Brecht-Str.",
        "latitude": 51.358696,
        "longitude": 12.427992
    },
    {
        "id": "000012705",
        "city": "Leipzig",
        "name": "Hofmeisterstr.",
        "latitude": 51.343696,
        "longitude": 12.387289
    },
    {
        "id": "000012706",
        "city": "Leipzig",
        "name": "Friedrich-List-Platz",
        "latitude": 51.34547,
        "longitude": 12.392474
    },
    {
        "id": "000012707",
        "city": "Leipzig",
        "name": "S-Bahnhof Leutzsch",
        "latitude": 51.353192,
        "longitude": 12.303294
    },
    {
        "id": "000012709",
        "city": "Leipzig",
        "name": "Mockau, Kirche",
        "latitude": 51.377796,
        "longitude": 12.421188
    },
    {
        "id": "000012710",
        "city": "Leipzig",
        "name": "Thekla, Tauchaer Str.",
        "latitude": 51.379292,
        "longitude": 12.426889
    },
    {
        "id": "000012711",
        "city": "Leipzig",
        "name": "Mockau, Post",
        "latitude": 51.375194,
        "longitude": 12.412675
    },
    {
        "id": "000012712",
        "city": "Leipzig",
        "name": "Samuel-Lampel-Str.",
        "latitude": 51.375689,
        "longitude": 12.418186
    },
    {
        "id": "000012713",
        "city": "Leipzig",
        "name": "Einertstr.",
        "latitude": 51.345994,
        "longitude": 12.399189
    },
    {
        "id": "000012714",
        "city": "Leipzig",
        "name": "Hermann-Liebmann-/Eisenbahnstr.",
        "latitude": 51.345593,
        "longitude": 12.406194
    },
    {
        "id": "000012806",
        "city": "Leipzig",
        "name": "Waldemar-Götze-Str.",
        "latitude": 51.383196,
        "longitude": 12.43359
    },
    {
        "id": "000012807",
        "city": "Leipzig",
        "name": "Teschstr.",
        "latitude": 51.389697,
        "longitude": 12.433589
    },
    {
        "id": "000012809",
        "city": "Leipzig",
        "name": "Plaußig, Am Kellerberg",
        "latitude": 51.393909,
        "longitude": 12.457304
    },
    {
        "id": "000012814",
        "city": "Leipzig",
        "name": "Plaußig, Portitzmühlweg",
        "latitude": 51.391795,
        "longitude": 12.443893
    },
    {
        "id": "000012816",
        "city": "Leipzig",
        "name": "Klinikum St. Georg",
        "latitude": 51.38429,
        "longitude": 12.381192
    },
    {
        "id": "000012818",
        "city": "Leipzig",
        "name": "Delitzscher/Essener Str.",
        "latitude": 51.37619,
        "longitude": 12.385494
    },
    {
        "id": "000012819",
        "city": "Leipzig",
        "name": "Hornbach-Baumarkt",
        "latitude": 51.378989,
        "longitude": 12.384796
    },
    {
        "id": "000012820",
        "city": "Leipzig",
        "name": "Eutritzscher Markt",
        "latitude": 51.367697,
        "longitude": 12.386289
    },
    {
        "id": "000012821",
        "city": "Leipzig",
        "name": "Mosenthinstr.",
        "latitude": 51.372597,
        "longitude": 12.38599
    },
    {
        "id": "000012822",
        "city": "Leipzig",
        "name": "Wilhelminenstr.",
        "latitude": 51.36149,
        "longitude": 12.381393
    },
    {
        "id": "000012823",
        "city": "Leipzig",
        "name": "Dachauer Str.",
        "latitude": 51.390097,
        "longitude": 12.377195
    },
    {
        "id": "000012824",
        "city": "Leipzig",
        "name": "Wiederitzsch, Mitte",
        "latitude": 51.393396,
        "longitude": 12.375684
    },
    {
        "id": "000012825",
        "city": "Leipzig",
        "name": "Mockau-West",
        "latitude": 51.380891,
        "longitude": 12.401992
    },
    {
        "id": "000012826",
        "city": "Leipzig",
        "name": "Elisabeth-Schumacher-Str.",
        "latitude": 51.350993,
        "longitude": 12.43889
    },
    {
        "id": "000012827",
        "city": "Leipzig",
        "name": "Weinbrennerstr.",
        "latitude": 51.35079,
        "longitude": 12.445495
    },
    {
        "id": "000012828",
        "city": "Leipzig",
        "name": "Volksgartenstr.",
        "latitude": 51.353697,
        "longitude": 12.420884
    },
    {
        "id": "000012829",
        "city": "Leipzig",
        "name": "Permoser-/Torgauer Str.",
        "latitude": 51.352145,
        "longitude": 12.425694
    },
    {
        "id": "000012830",
        "city": "Leipzig",
        "name": "Max-Lingner-Str.",
        "latitude": 51.354997,
        "longitude": 12.423192
    },
    {
        "id": "000012832",
        "city": "Leipzig",
        "name": "Otto-Michael-Str.",
        "latitude": 51.37799,
        "longitude": 12.406188
    },
    {
        "id": "000012833",
        "city": "Leipzig",
        "name": "Neutzscher Str.",
        "latitude": 51.380295,
        "longitude": 12.434695
    },
    {
        "id": "000012834",
        "city": "Leipzig",
        "name": "Rückmarsdorf, Friedhof",
        "latitude": 51.344196,
        "longitude": 12.254995
    },
    {
        "id": "000012835",
        "city": "Leipzig",
        "name": "Burghausen",
        "latitude": 51.355713,
        "longitude": 12.265362
    },
    {
        "id": "000012836",
        "city": "Leipzig",
        "name": "Rückmarsdorf, Großer Marktweg",
        "latitude": 51.344875,
        "longitude": 12.266787
    },
    {
        "id": "000012837",
        "city": "Leipzig",
        "name": "Rückmarsdorf, Miltitzer Str.",
        "latitude": 51.34789,
        "longitude": 12.262795
    },
    {
        "id": "000012841",
        "city": "Leipzig",
        "name": "Rathaus Schönefeld",
        "latitude": 51.359696,
        "longitude": 12.410689
    },
    {
        "id": "000012842",
        "city": "Leipzig",
        "name": "Schönefeld, Volbedingstr.",
        "latitude": 51.361294,
        "longitude": 12.407389
    },
    {
        "id": "000012843",
        "city": "Leipzig",
        "name": "Ossietzky-/Gorkistr.",
        "latitude": 51.359296,
        "longitude": 12.417596
    },
    {
        "id": "000012844",
        "city": "Leipzig",
        "name": "Gundorf, Friedhof",
        "latitude": 51.359428,
        "longitude": 12.269504
    },
    {
        "id": "000012845",
        "city": "Leipzig",
        "name": "Stöckelstr.",
        "latitude": 51.353993,
        "longitude": 12.411988
    },
    {
        "id": "000012846",
        "city": "Leipzig",
        "name": "Löbauer Str.",
        "latitude": 51.356793,
        "longitude": 12.416189
    },
    {
        "id": "000012848",
        "city": "Leipzig",
        "name": "Böhlitz-Ehrenberg, Heinrich-Heine-Str.",
        "latitude": 51.35713,
        "longitude": 12.288283
    },
    {
        "id": "000012849",
        "city": "Leipzig",
        "name": "Stannebeinplatz",
        "latitude": 51.351289,
        "longitude": 12.407895
    },
    {
        "id": "000012851",
        "city": "Leipzig",
        "name": "Torgauer Platz",
        "latitude": 51.345054,
        "longitude": 12.414195
    },
    {
        "id": "000012854",
        "city": "Leipzig",
        "name": "Rückmarsdorf, Wachbergallee",
        "latitude": 51.340569,
        "longitude": 12.263524
    },
    {
        "id": "000012967",
        "city": "Leipzig",
        "name": "Gohlis-Nord",
        "latitude": 51.375098,
        "longitude": 12.378187
    },
    {
        "id": "000012968",
        "city": "Leipzig",
        "name": "Chausseehaus",
        "latitude": 51.356195,
        "longitude": 12.376996
    },
    {
        "id": "000012969",
        "city": "Leipzig",
        "name": "S-Bahnhof Gohlis (Bus)",
        "latitude": 51.363494,
        "longitude": 12.374287
    },
    {
        "id": "000012970",
        "city": "Leipzig",
        "name": "Gottschallstr.",
        "latitude": 51.368993,
        "longitude": 12.376588
    },
    {
        "id": "000012971",
        "city": "Leipzig",
        "name": "Fritz-Seger-Str.",
        "latitude": 51.357289,
        "longitude": 12.368991
    },
    {
        "id": "000012972",
        "city": "Leipzig",
        "name": "Georg-Schumann-/Lützowstr.",
        "latitude": 51.361241,
        "longitude": 12.371033
    },
    {
        "id": "000012973",
        "city": "Leipzig",
        "name": "Wiederitzscher Str.",
        "latitude": 51.364094,
        "longitude": 12.358416
    },
    {
        "id": "000012974",
        "city": "Leipzig",
        "name": "S-Bahnhof Möckern (Tram/Bus)",
        "latitude": 51.365759,
        "longitude": 12.351169
    },
    {
        "id": "000012975",
        "city": "Leipzig",
        "name": "Portitz, Teichsiedlung",
        "latitude": 51.378593,
        "longitude": 12.464396
    },
    {
        "id": "000012976",
        "city": "Leipzig",
        "name": "Portitz, Am langen Teiche",
        "latitude": 51.383992,
        "longitude": 12.453595
    },
    {
        "id": "000012977",
        "city": "Leipzig",
        "name": "Portitz, Krätzbergstr.",
        "latitude": 51.383394,
        "longitude": 12.463192
    },
    {
        "id": "000012978",
        "city": "Leipzig",
        "name": "Cleudner Str.",
        "latitude": 51.381397,
        "longitude": 12.442795
    },
    {
        "id": "000012979",
        "city": "Leipzig",
        "name": "Wodanstr.",
        "latitude": 51.382889,
        "longitude": 12.447692
    },
    {
        "id": "000012980",
        "city": "Leipzig",
        "name": "Simon-Bolivar-Str.",
        "latitude": 51.379195,
        "longitude": 12.420085
    },
    {
        "id": "000012982",
        "city": "Leipzig",
        "name": "Portitz, Melker Weg",
        "latitude": 51.382893,
        "longitude": 12.46919
    },
    {
        "id": "000012992",
        "city": "Leipzig",
        "name": "Wilhelm-Leuschner-Platz",
        "latitude": 51.335862,
        "longitude": 12.375858
    },
    {
        "id": "000012993",
        "city": "Leipzig",
        "name": "Thomaskirche",
        "latitude": 51.339296,
        "longitude": 12.371187
    },
    {
        "id": "000012994",
        "city": "Leipzig",
        "name": "Neues Rathaus",
        "latitude": 51.335496,
        "longitude": 12.371094
    },
    {
        "id": "000012995",
        "city": "Leipzig",
        "name": "Hauptbahnhof/Westseite",
        "latitude": 51.344792,
        "longitude": 12.378597
    },
    {
        "id": "000012996",
        "city": "Leipzig",
        "name": "Goerdelerring",
        "latitude": 51.344194,
        "longitude": 12.370987
    },
    {
        "id": "000012998",
        "city": "Leipzig",
        "name": "Münzgasse/LVZ",
        "latitude": 51.33305,
        "longitude": 12.37357
    },
    {
        "id": "000013000",
        "city": "Leipzig",
        "name": "Hauptbahnhof (Tram/Bus)",
        "latitude": 51.343951,
        "longitude": 12.38033
    },
    {
        "id": "000013001",
        "city": "Leipzig",
        "name": "Roßplatz",
        "latitude": 51.336098,
        "longitude": 12.378589
    },
    {
        "id": "000013002",
        "city": "Leipzig",
        "name": "Augustusplatz",
        "latitude": 51.338894,
        "longitude": 12.381996
    },
    {
        "id": "000013003",
        "city": "Leipzig",
        "name": "S-Bahnhof Connewitz (Tram/Bus)",
        "latitude": 51.301712,
        "longitude": 12.383906
    },
    {
        "id": "000013004",
        "city": "Leipzig",
        "name": "Raschwitzer Str.",
        "latitude": 51.295894,
        "longitude": 12.386088
    },
    {
        "id": "000013005",
        "city": "Leipzig",
        "name": "Stockartstr.",
        "latitude": 51.308096,
        "longitude": 12.377993
    },
    {
        "id": "000013006",
        "city": "Leipzig",
        "name": "Hildebrandstr.",
        "latitude": 51.304893,
        "longitude": 12.381788
    },
    {
        "id": "000013007",
        "city": "Leipzig",
        "name": "Connewitzer Kreuz",
        "latitude": 51.310795,
        "longitude": 12.373284
    },
    {
        "id": "000013008",
        "city": "Leipzig",
        "name": "Südplatz",
        "latitude": 51.324931,
        "longitude": 12.373576
    },
    {
        "id": "000013009",
        "city": "Leipzig",
        "name": "Friederikenstr.",
        "latitude": 51.290543,
        "longitude": 12.390455
    },
    {
        "id": "000013010",
        "city": "Leipzig",
        "name": "Leinestr.",
        "latitude": 51.287391,
        "longitude": 12.39279
    },
    {
        "id": "000013118",
        "city": "Leipzig",
        "name": "Kietzstr.",
        "latitude": 51.354592,
        "longitude": 12.317683
    },
    {
        "id": "000013120",
        "city": "Leipzig",
        "name": "Nonnenweg",
        "latitude": 51.319494,
        "longitude": 12.352184
    },
    {
        "id": "000013122",
        "city": "Leipzig",
        "name": "Kloßstr.",
        "latitude": 51.305598,
        "longitude": 12.320485
    },
    {
        "id": "000013124",
        "city": "Leipzig",
        "name": "An den Tierkliniken",
        "latitude": 51.318086,
        "longitude": 12.39477
    },
    {
        "id": "000013125",
        "city": "Leipzig",
        "name": "S-Bahnhof Thekla (Bus)",
        "latitude": 51.371899,
        "longitude": 12.428175
    },
    {
        "id": "000013131",
        "city": "Leipzig",
        "name": "S-Bahnhof Allee-Center (Bus)",
        "latitude": 51.320195,
        "longitude": 12.292698
    },
    {
        "id": "000013132",
        "city": "Leipzig",
        "name": "Stuttgarter Allee",
        "latitude": 51.313291,
        "longitude": 12.291988
    },
    {
        "id": "000013196",
        "city": "Leipzig",
        "name": "Lützner/Merseburger Str.",
        "latitude": 51.335798,
        "longitude": 12.330091
    },
    {
        "id": "000013247",
        "city": "Leipzig",
        "name": "Richard-Lehmann-Str./HTWK",
        "latitude": 51.314997,
        "longitude": 12.373191
    },
    {
        "id": "000013280",
        "city": "Leipzig",
        "name": "Saarländer Str.",
        "latitude": 51.327906,
        "longitude": 12.308449
    },
    {
        "id": "000013282",
        "city": "Leipzig",
        "name": "Hohentichelnstr.",
        "latitude": 51.359096,
        "longitude": 12.440992
    },
    {
        "id": "000013283",
        "city": "Leipzig",
        "name": "Credéstr.",
        "latitude": 51.330244,
        "longitude": 12.314474
    },
    {
        "id": "000013284",
        "city": "Leipzig",
        "name": "S-Bahnhof Nord (Bus)",
        "latitude": 51.362494,
        "longitude": 12.399492
    },
    {
        "id": "000013285",
        "city": "Leipzig",
        "name": "Alte Dübener Landstr.",
        "latitude": 51.400207,
        "longitude": 12.392947
    },
    {
        "id": "000013286",
        "city": "Leipzig",
        "name": "Lauerscher Weg",
        "latitude": 51.298891,
        "longitude": 12.332795
    },
    {
        "id": "000013288",
        "city": "Leipzig",
        "name": "Schongauerstr.",
        "latitude": 51.345691,
        "longitude": 12.473484
    },
    {
        "id": "000013296",
        "city": "Leipzig",
        "name": "Cospudener See/EXPO-Pavillon",
        "latitude": 51.291967,
        "longitude": 12.352614
    },
    {
        "id": "000013514",
        "city": "Leipzig",
        "name": "Fliederhof",
        "latitude": 51.354187,
        "longitude": 12.395732
    },
    {
        "id": "000013537",
        "city": "Leipzig",
        "name": "Antonien-/Gießerstr.",
        "latitude": 51.320495,
        "longitude": 12.326585
    },
    {
        "id": "000013538",
        "city": "Leipzig",
        "name": "Bautzner/Bästleinstr.",
        "latitude": 51.35699,
        "longitude": 12.431886
    },
    {
        "id": "000013539",
        "city": "Leipzig",
        "name": "Lausner Weg",
        "latitude": 51.311991,
        "longitude": 12.307791
    },
    {
        "id": "000013543",
        "city": "Leipzig",
        "name": "Colmbergsiedlung",
        "latitude": 51.295498,
        "longitude": 12.464397
    },
    {
        "id": "000013545",
        "city": "Leipzig",
        "name": "Großzschocher, Anton-Zickmantel-Str.",
        "latitude": 51.302496,
        "longitude": 12.324894
    },
    {
        "id": "000013546",
        "city": "Leipzig",
        "name": "Kommandant-Prendel-Allee",
        "latitude": 51.313894,
        "longitude": 12.421994
    },
    {
        "id": "000013548",
        "city": "Leipzig",
        "name": "Leonhard-Frank-Str.",
        "latitude": 51.35139,
        "longitude": 12.430591
    },
    {
        "id": "000013549",
        "city": "Leipzig",
        "name": "Leupoldstr.",
        "latitude": 51.362395,
        "longitude": 12.437993
    },
    {
        "id": "000013550",
        "city": "Leipzig",
        "name": "Arno-Nitzsche-/Arthur-Hoffmann-Str.",
        "latitude": 51.310117,
        "longitude": 12.379633
    },
    {
        "id": "000013551",
        "city": "Leipzig",
        "name": "Oberdorfstr.",
        "latitude": 51.320993,
        "longitude": 12.428894
    },
    {
        "id": "000013552",
        "city": "Leipzig",
        "name": "Paunsdorf, Friedhof",
        "latitude": 51.355097,
        "longitude": 12.444296
    },
    {
        "id": "000013553",
        "city": "Leipzig",
        "name": "Paunsdorfer Str.",
        "latitude": 51.334792,
        "longitude": 12.441897
    },
    {
        "id": "000013554",
        "city": "Leipzig",
        "name": "Permoser-/Hohentichelnstr.",
        "latitude": 51.35039,
        "longitude": 12.447188
    },
    {
        "id": "000013555",
        "city": "Leipzig",
        "name": "Schwimmhalle Südost",
        "latitude": 51.316592,
        "longitude": 12.426887
    },
    {
        "id": "000013557",
        "city": "Leipzig",
        "name": "Uhlandweg",
        "latitude": 51.337194,
        "longitude": 12.443383
    },
    {
        "id": "000015735",
        "city": "Leipzig",
        "name": "Gottscheina, Siedlung",
        "latitude": 51.421194,
        "longitude": 12.476897
    },
    {
        "id": "000015738",
        "city": "Leipzig",
        "name": "Hauptbahnhof/Goethestr.",
        "latitude": 51.343297,
        "longitude": 12.381488
    },
    {
        "id": "000015763",
        "city": "Leipzig",
        "name": "GVZ Nord/Porschestr.",
        "latitude": 51.41333,
        "longitude": 12.296502
    },
    {
        "id": "000015786",
        "city": "Leipzig",
        "name": "Reichsstr.",
        "latitude": 51.340696,
        "longitude": 12.376889
    },
    {
        "id": "000015787",
        "city": "Leipzig",
        "name": "Russenstr.",
        "latitude": 51.304593,
        "longitude": 12.440796
    },
    {
        "id": "000015811",
        "city": "Leipzig",
        "name": "Probstheidaer/Willi-Bredel-Str.",
        "latitude": 51.303381,
        "longitude": 12.400138
    },
    {
        "id": "000015823",
        "city": "Leipzig",
        "name": "August-Bebel-/Richard-Lehmann-Str.",
        "latitude": 51.315082,
        "longitude": 12.368362
    },
    {
        "id": "000015824",
        "city": "Leipzig",
        "name": "Alte Salzstr.",
        "latitude": 51.314895,
        "longitude": 12.27939
    },
    {
        "id": "000015825",
        "city": "Leipzig",
        "name": "Dornbergerstr.",
        "latitude": 51.343195,
        "longitude": 12.406088
    },
    {
        "id": "000015826",
        "city": "Leipzig",
        "name": "Engelsdorf, Kirche",
        "latitude": 51.33609,
        "longitude": 12.48549
    },
    {
        "id": "000015827",
        "city": "Leipzig",
        "name": "Gustav-Freytag-Str.",
        "latitude": 51.312597,
        "longitude": 12.368797
    },
    {
        "id": "000015828",
        "city": "Leipzig",
        "name": "Ringstr.",
        "latitude": 51.317891,
        "longitude": 12.296593
    },
    {
        "id": "000015829",
        "city": "Leipzig",
        "name": "Steinstr. (Ärztehaus Süd)",
        "latitude": 51.317895,
        "longitude": 12.368396
    },
    {
        "id": "000015861",
        "city": "Leipzig",
        "name": "GVZ Süd/Am Exer",
        "latitude": 51.394068,
        "longitude": 12.292745
    },
    {
        "id": "000015873",
        "city": "Leipzig",
        "name": "Schönefelder Str.",
        "latitude": 51.363193,
        "longitude": 12.396183
    },
    {
        "id": "000016305",
        "city": "Leipzig",
        "name": "Geithainer Str.",
        "latitude": 51.34279,
        "longitude": 12.445095
    },
    {
        "id": "000016881",
        "city": "Leipzig",
        "name": "Engelsdorf, Güterbahnhofstr.",
        "latitude": 51.345796,
        "longitude": 12.465695
    },
    {
        "id": "000017154",
        "city": "Leipzig",
        "name": "Weimarer Str.",
        "latitude": 51.326893,
        "longitude": 12.281496
    },
    {
        "id": "000017161",
        "city": "Leipzig",
        "name": "Kiewer Str./Kaufland",
        "latitude": 51.324996,
        "longitude": 12.275089
    },
    {
        "id": "000019921",
        "city": "Leipzig",
        "name": "BMW Zentralgebäude",
        "latitude": 51.408663,
        "longitude": 12.443034
    },
    {
        "id": "000019968",
        "city": "Leipzig",
        "name": "Azaleenstr.",
        "latitude": 51.262797,
        "longitude": 12.299195
    },
    {
        "id": "000019969",
        "city": "Leipzig",
        "name": "Seehausen, Dingolfinger Str.",
        "latitude": 51.405989,
        "longitude": 12.418895
    },
    {
        "id": "000019970",
        "city": "Leipzig",
        "name": "Gohlis-Süd",
        "latitude": 51.361861,
        "longitude": 12.363237
    },
    {
        "id": "000020052",
        "city": "Leipzig",
        "name": "Mölkauer Dorfplatz",
        "latitude": 51.332592,
        "longitude": 12.443296
    },
    {
        "id": "000020058",
        "city": "Leipzig",
        "name": "Sportforum Ost",
        "latitude": 51.345027,
        "longitude": 12.354508
    },
    {
        "id": "000020158",
        "city": "Leipzig",
        "name": "S-Bahnhof Slevogtstr. (Bus)",
        "latitude": 51.373395,
        "longitude": 12.344185
    },
    {
        "id": "000020180",
        "city": "Leipzig",
        "name": "Connewitzer Str.",
        "latitude": 51.304494,
        "longitude": 12.417793
    },
    {
        "id": "000020213",
        "city": "Leipzig",
        "name": "Schönbachstr.",
        "latitude": 51.320263,
        "longitude": 12.413284
    },
    {
        "id": "000020226",
        "city": "Leipzig",
        "name": "Windmühlenstr.",
        "latitude": 51.333996,
        "longitude": 12.375994
    },
    {
        "id": "000020274",
        "city": "Leipzig",
        "name": "BMW/Tor 1",
        "latitude": 51.40173,
        "longitude": 12.452475
    },
    {
        "id": "000020282",
        "city": "Leipzig",
        "name": "BMW Presswerk",
        "latitude": 51.411965,
        "longitude": 12.449652
    },
    {
        "id": "000022361",
        "city": "Leipzig",
        "name": "Essener/Friedrichshafner Str.",
        "latitude": 51.375697,
        "longitude": 12.405586
    },
    {
        "id": "000022362",
        "city": "Leipzig",
        "name": "Leonhardtstr.",
        "latitude": 51.372288,
        "longitude": 12.404715
    },
    {
        "id": "000022868",
        "city": "Leipzig",
        "name": "Schildberger Weg",
        "latitude": 51.380226,
        "longitude": 12.406598
    },
    {
        "id": "000022879",
        "city": "Leipzig",
        "name": "Albersdorfer Str.",
        "latitude": 51.284661,
        "longitude": 12.311431
    },
    {
        "id": "000022880",
        "city": "Leipzig",
        "name": "Fortunabadstr.",
        "latitude": 51.279965,
        "longitude": 12.310262
    },
    {
        "id": "000022934",
        "city": "Leipzig",
        "name": "Steinplatz",
        "latitude": 51.317903,
        "longitude": 12.378427
    },
    {
        "id": "000022936",
        "city": "Leipzig",
        "name": "Future Electronics",
        "latitude": 51.402398,
        "longitude": 12.459109
    },
    {
        "id": "000022937",
        "city": "Leipzig",
        "name": "Ferag",
        "latitude": 51.402441,
        "longitude": 12.45917
    },
    {
        "id": "000023153",
        "city": "Leipzig",
        "name": "Allee-Center/Offenburger Str.",
        "latitude": 51.320531,
        "longitude": 12.288747
    },
    {
        "id": "000023154",
        "city": "Leipzig",
        "name": "Allee-Center Süd",
        "latitude": 51.318599,
        "longitude": 12.290603
    },
    {
        "id": "000023155",
        "city": "Leipzig",
        "name": "Breisgau-/Ringstr.",
        "latitude": 51.31769,
        "longitude": 12.295761
    },
    {
        "id": "000023156",
        "city": "Leipzig",
        "name": "Breisgaustr./S-Bahnhof Karlsruher Str.",
        "latitude": 51.317101,
        "longitude": 12.280538
    },
    {
        "id": "000023157",
        "city": "Leipzig",
        "name": "Str. am Park",
        "latitude": 51.315945,
        "longitude": 12.304704
    },
    {
        "id": "000023158",
        "city": "Leipzig",
        "name": "Horburger Str.",
        "latitude": 51.328971,
        "longitude": 12.283065
    },
    {
        "id": "000023161",
        "city": "Leipzig",
        "name": "S-Bahnhof Grünauer Allee (Bus)",
        "latitude": 51.319669,
        "longitude": 12.302733
    },
    {
        "id": "000023162",
        "city": "Leipzig",
        "name": "Schönau, Kirche",
        "latitude": 51.327727,
        "longitude": 12.289291
    },
    {
        "id": "000023163",
        "city": "Leipzig",
        "name": "Selliner Str./Gesundheitszentrum",
        "latitude": 51.313593,
        "longitude": 12.26419
    },
    {
        "id": "000023204",
        "city": "Leipzig",
        "name": "Gärtnerstr.",
        "latitude": 51.316901,
        "longitude": 12.306825
    },
    {
        "id": "000024972",
        "city": "Leipzig",
        "name": "Engelsdorf, Opalstr.",
        "latitude": 51.341433,
        "longitude": 12.478201
    },
    {
        "id": "000030004",
        "city": "Leipzig",
        "name": "Dürrstr.",
        "latitude": 51.296725,
        "longitude": 12.390309
    },
    {
        "id": "000030042",
        "city": "Leipzig",
        "name": "Wächterstr. (Grassistr.)",
        "latitude": 51.333161,
        "longitude": 12.366904
    },
    {
        "id": "000030043",
        "city": "Leipzig",
        "name": "Mozartstr. (Grassistr.)",
        "latitude": 51.331269,
        "longitude": 12.367684
    },
    {
        "id": "000030044",
        "city": "Leipzig",
        "name": "Robert-Schumann-Str. (Grassistr.)",
        "latitude": 51.328719,
        "longitude": 12.368788
    },
    {
        "id": "000030089",
        "city": "Leipzig",
        "name": "Robert-Koch-Klinikum",
        "latitude": 51.31519,
        "longitude": 12.301479
    },
    {
        "id": "000030268",
        "city": "Leipzig",
        "name": "Plaußig, Am Schenkberg",
        "latitude": 51.396777,
        "longitude": 12.450908
    },
    {
        "id": "000030269",
        "city": "Leipzig",
        "name": "Dingolfinger Str./Firma Magna",
        "latitude": 51.396982,
        "longitude": 12.431087
    },
    {
        "id": "000030317",
        "city": "Leipzig",
        "name": "Baaderstr.",
        "latitude": 51.371087,
        "longitude": 12.376957
    },
    {
        "id": "000030495",
        "city": "Leipzig",
        "name": "Versorgungszentrum BMW-Allee",
        "latitude": 51.403931,
        "longitude": 12.43237
    },
    {
        "id": "000030636",
        "city": "Leipzig",
        "name": "Hafentor",
        "latitude": 51.332696,
        "longitude": 12.304087
    },
    {
        "id": "000030637",
        "city": "Leipzig",
        "name": "Lindenauer Hafen",
        "latitude": 51.330519,
        "longitude": 12.306657
    },
    {
        "id": "000030699",
        "city": "Leipzig",
        "name": "S-Bahnhof Essener Str. (Bus)",
        "latitude": 51.376583,
        "longitude": 12.397075
    },
    {
        "id": "000030724",
        "city": "Leipzig",
        "name": "Alte Str.",
        "latitude": 51.332277,
        "longitude": 12.342237
    },
    {
        "id": "000030725",
        "city": "Leipzig",
        "name": "Niemeyerstr.",
        "latitude": 51.325894,
        "longitude": 12.31439
    },
    {
        "id": "000030726",
        "city": "Leipzig",
        "name": "Queckstr.",
        "latitude": 51.337846,
        "longitude": 12.327297
    },
    {
        "id": "000030727",
        "city": "Leipzig",
        "name": "Spinnerei",
        "latitude": 51.328038,
        "longitude": 12.319969
    },
    {
        "id": "000030771",
        "city": "Leipzig",
        "name": "Messe-Allee/Imperial",
        "latitude": 51.393634,
        "longitude": 12.407207
    },
    {
        "id": "000030849",
        "city": "Leipzig",
        "name": "Tornauer Str.",
        "latitude": 51.411823,
        "longitude": 12.390501
    },
    {
        "id": "000030850",
        "city": "Leipzig",
        "name": "Kossaer Str.",
        "latitude": 51.410437,
        "longitude": 12.392742
    },
    {
        "id": "000030861",
        "city": "Leipzig",
        "name": "Blücherstr.",
        "latitude": 51.370594,
        "longitude": 12.338033
    },
    {
        "id": "000030898",
        "city": "Leipzig",
        "name": "Paul-Beiersdorf-Str.",
        "latitude": 51.416606,
        "longitude": 12.390856
    },
    {
        "id": "000030908",
        "city": "Leipzig",
        "name": "BMW/Tor 2",
        "latitude": 51.399852,
        "longitude": 12.437786
    },
    {
        "id": "000030909",
        "city": "Leipzig",
        "name": "Hellerstr.",
        "latitude": 51.354541,
        "longitude": 12.31027
    },
    {
        "id": "000030931",
        "city": "Leipzig",
        "name": "Großzschocher, Feuer- und Rettungswache",
        "latitude": 51.301429,
        "longitude": 12.3064
    },
    {
        "id": "000095480",
        "city": "Leipzig",
        "name": "Faradaystr.",
        "latitude": 51.368797,
        "longitude": 12.348992
    },
    {
        "id": "000096323",
        "city": "Leipzig",
        "name": "Melissenweg",
        "latitude": 51.387598,
        "longitude": 12.354692
    },
    {
        "id": "008010008",
        "city": "Leipzig",
        "name": "Anger-Crottendorf",
        "latitude": 51.332433,
        "longitude": 12.420519
    },
    {
        "id": "008010186",
        "city": "Leipzig",
        "name": "Karlsruher Str",
        "latitude": 51.317236,
        "longitude": 12.27927
    },
    {
        "id": "008010205",
        "city": "Leipzig",
        "name": "Leipzig Hbf",
        "latitude": 51.345474,
        "longitude": 12.382064
    },
    {
        "id": "008010206",
        "city": "Leipzig",
        "name": "Leipzig-Connewitz",
        "latitude": 51.300716,
        "longitude": 12.386315
    },
    {
        "id": "008010207",
        "city": "Leipzig",
        "name": "Leipzig-Leutzsch",
        "latitude": 51.353998,
        "longitude": 12.30374
    },
    {
        "id": "008010208",
        "city": "Leipzig",
        "name": "Leipzig-Paunsdorf",
        "latitude": 51.344296,
        "longitude": 12.444332
    },
    {
        "id": "008010209",
        "city": "Leipzig",
        "name": "Leipzig-Plagwitz",
        "latitude": 51.328041,
        "longitude": 12.322079
    },
    {
        "id": "008011491",
        "city": "Leipzig",
        "name": "Leipzig-Engelsdorf",
        "latitude": 51.34395,
        "longitude": 12.47763
    },
    {
        "id": "008011495",
        "city": "Leipzig",
        "name": "Leipzig Werkstättenstraße",
        "latitude": 51.340602,
        "longitude": 12.456172
    },
    {
        "id": "008011771",
        "city": "Leipzig",
        "name": "Leipzig Grünauer Allee",
        "latitude": 51.320902,
        "longitude": 12.303009
    },
    {
        "id": "008011913",
        "city": "Leipzig",
        "name": "Leipzig-Holzhausen",
        "latitude": 51.306043,
        "longitude": 12.461448
    },
    {
        "id": "008012181",
        "city": "Leipzig",
        "name": "Leipzig Olbrichtstraße",
        "latitude": 51.369891,
        "longitude": 12.353497
    },
    {
        "id": "008012183",
        "city": "Leipzig",
        "name": "Leipzig/Halle Flughafen",
        "latitude": 51.423341,
        "longitude": 12.22343
    },
    {
        "id": "008012184",
        "city": "Leipzig",
        "name": "Leipzig Bayerischer Bahnhof",
        "latitude": 51.329265,
        "longitude": 12.38166
    },
    {
        "id": "008012186",
        "city": "Leipzig",
        "name": "Leipzig Markt",
        "latitude": 51.340636,
        "longitude": 12.374616
    },
    {
        "id": "008012187",
        "city": "Leipzig",
        "name": "Leipzig MDR",
        "latitude": 51.320066,
        "longitude": 12.38632
    },
    {
        "id": "008012188",
        "city": "Leipzig",
        "name": "Leipzig-Gohlis",
        "latitude": 51.362857,
        "longitude": 12.374527
    },
    {
        "id": "008012190",
        "city": "Leipzig",
        "name": "Leipzig-Heiterblick",
        "latitude": 51.369336,
        "longitude": 12.459976
    },
    {
        "id": "008012192",
        "city": "Leipzig",
        "name": "Leipzig-Knauthain",
        "latitude": 51.278181,
        "longitude": 12.309101
    },
    {
        "id": "008012193",
        "city": "Leipzig",
        "name": "Leipzig-Möckern",
        "latitude": 51.364433,
        "longitude": 12.352265
    },
    {
        "id": "008012194",
        "city": "Leipzig",
        "name": "Leipzig-Stötteritz",
        "latitude": 51.324516,
        "longitude": 12.411433
    },
    {
        "id": "008012195",
        "city": "Leipzig",
        "name": "Leipzig-Thekla",
        "latitude": 51.371626,
        "longitude": 12.430755
    },
    {
        "id": "008012196",
        "city": "Leipzig",
        "name": "Leipzig Nord",
        "latitude": 51.364166,
        "longitude": 12.401067
    },
    {
        "id": "008012197",
        "city": "Leipzig",
        "name": "Leipzig-Wahren",
        "latitude": 51.380686,
        "longitude": 12.321483
    },
    {
        "id": "008012200",
        "city": "Leipzig",
        "name": "Essener Straße",
        "latitude": 51.376361,
        "longitude": 12.396986
    },
    {
        "id": "008012202",
        "city": "Leipzig",
        "name": "Wilhelm-Leuschner-Platz",
        "latitude": 51.335399,
        "longitude": 12.375394
    },
    {
        "id": "008012204",
        "city": "Leipzig",
        "name": "Slevogtstraße",
        "latitude": 51.372948,
        "longitude": 12.344411
    },
    {
        "id": "008012228",
        "city": "Leipzig",
        "name": "Leipzig-Liebertwolkwitz",
        "latitude": 51.28397,
        "longitude": 12.46925
    },
    {
        "id": "008012236",
        "city": "Leipzig",
        "name": "Leipzig-Lindenau",
        "latitude": 51.333758,
        "longitude": 12.321488
    },
    {
        "id": "008012273",
        "city": "Leipzig",
        "name": "Leipzig Mockauer Straße",
        "latitude": 51.373799,
        "longitude": 12.412097
    },
    {
        "id": "008012285",
        "city": "Leipzig",
        "name": "Leipzig-Lützschena",
        "latitude": 51.390057,
        "longitude": 12.293089
    },
    {
        "id": "008012343",
        "city": "Leipzig",
        "name": "Leipzig Völkerschlachtdenkmal",
        "latitude": 51.31874,
        "longitude": 12.406283
    },
    {
        "id": "008012344",
        "city": "Leipzig",
        "name": "Leipzig Miltitzer Allee",
        "latitude": 51.315349,
        "longitude": 12.267342
    },
    {
        "id": "008012355",
        "city": "Leipzig",
        "name": "Leipzig-Miltitz",
        "latitude": 51.325313,
        "longitude": 12.255034
    },
    {
        "id": "008012375",
        "city": "Leipzig",
        "name": "Leipzig-Mölkau",
        "latitude": 51.325235,
        "longitude": 12.459823
    },
    {
        "id": "008012478",
        "city": "Leipzig",
        "name": "Leipzig Messe",
        "latitude": 51.396141,
        "longitude": 12.389283
    },
    {
        "id": "008012817",
        "city": "Leipzig",
        "name": "Leipzig-Rückmarsdorf",
        "latitude": 51.341868,
        "longitude": 12.282667
    },
    {
        "id": "008013070",
        "city": "Leipzig",
        "name": "Leipzig Allee-Center",
        "latitude": 51.31916,
        "longitude": 12.291748
    },
    {
        "id": "008071179",
        "city": "Leipzig",
        "name": "Leipzig Torgauer Platz",
        "latitude": 51.345068,
        "longitude": 12.414339
    },
    {
        "id": "008080840",
        "city": "Leipzig",
        "name": "Leipzig Coppiplatz",
        "latitude": 51.367077,
        "longitude": 12.366018
    },
    {
        "id": "008080930",
        "city": "Leipzig",
        "name": "Leipzig-Sellerhausen",
        "latitude": 51.345179,
        "longitude": 12.424671
    },
    {
        "id": "008098205",
        "city": "Leipzig",
        "name": "Leipzig Hbf (tief)",
        "latitude": 51.345693,
        "longitude": 12.380429
    }
]